[
  {
    "id": "aa7f864e-993a-43d0-872b-e16463aafadf",
    "name": "Botkyrka",
    "municipality": "Botkyrka",
    "coordinates": [59.2459411, 17.8408583],
    "contact": null,
    "studentCount": 3,
    "parentCount": 2
  },
  {
    "id": "9ed19a65-6046-4c33-9bbd-2019a99a3ab9",
    "name": "Stockholms stad",
    "municipality": "Stockholms stad",
    "coordinates": [59.3064535, 18.04167],
    "contact": null,
    "studentCount": 634,
    "parentCount": 447
  },
  {
    "id": "effd8f56-9f9c-4d53-83b5-0f2bb46e07a1",
    "name": "Täby",
    "municipality": "Täby",
    "coordinates": [59.4419, 18.0703299],
    "contact": null,
    "studentCount": 93,
    "parentCount": 63
  },
  {
    "id": "8f364cdb-7174-477a-ad53-4e990d1c2892",
    "name": "Östersunds",
    "municipality": "Östersunds",
    "coordinates": [63.1766832, 14.6360681],
    "contact": null,
    "studentCount": 31,
    "parentCount": 18
  },
  {
    "id": "0b340e88-88a9-4e85-8e88-9367f099328b",
    "name": "Falu",
    "municipality": "Falu",
    "coordinates": [60.60646000000001, 15.6355],
    "contact": null,
    "studentCount": 58,
    "parentCount": 34
  },
  {
    "id": "3fc99c22-c20d-47d5-8a8b-7e850394487f",
    "name": "Åre",
    "municipality": "Åre",
    "coordinates": [60.12816100000001, 18.643501],
    "contact": null,
    "studentCount": 22,
    "parentCount": 13
  },
  {
    "id": "63e8e847-705b-4111-81ac-e8aed0f6b39c",
    "name": "Örnsköldsviks",
    "municipality": "Örnsköldsviks",
    "coordinates": [63.29004740000001, 18.7166166],
    "contact": null,
    "studentCount": 20,
    "parentCount": 12
  },
  {
    "id": "6402dbad-36ca-4abc-84c4-a74d245f7370",
    "name": "Marks",
    "municipality": "Marks",
    "coordinates": [60.12816100000001, 18.643501],
    "contact": null,
    "studentCount": 10,
    "parentCount": 6
  },
  {
    "id": "4474ac42-838e-497b-969a-acfd4dbf1d28",
    "name": "Göteborgs stad",
    "municipality": "Göteborgs stad",
    "coordinates": [57.6809112, 11.8383135],
    "contact": null,
    "studentCount": 157,
    "parentCount": 106
  },
  {
    "id": "24acda52-87b7-4156-b058-faec7ae521b2",
    "name": "Huddinge",
    "municipality": "Huddinge",
    "coordinates": [59.23633, 17.9821561],
    "contact": null,
    "studentCount": 42,
    "parentCount": 31
  },
  {
    "id": "37f8c371-070a-4737-a656-96cc2b42e602",
    "name": "Danderyds",
    "municipality": "Danderyds",
    "coordinates": [59.4113212, 18.0577501],
    "contact": null,
    "studentCount": 51,
    "parentCount": 34
  },
  {
    "id": "67b67023-ab66-49e4-99bb-796b2780dce2",
    "name": "Uppsala",
    "municipality": "Uppsala",
    "coordinates": [59.85856380000001, 17.6389267],
    "contact": null,
    "studentCount": 92,
    "parentCount": 62
  },
  {
    "id": "9c975ea4-8d41-4250-9779-f3b7ba5a4c53",
    "name": "Österåkers",
    "municipality": "Österåkers",
    "coordinates": [59.521157, 18.5353419],
    "contact": null,
    "studentCount": 79,
    "parentCount": 50
  },
  {
    "id": "ef0d65b7-a368-4b8c-b703-ef53f5f6c83c",
    "name": "Simrishamns",
    "municipality": "Simrishamns",
    "coordinates": [55.5573959, 14.3489651],
    "contact": null,
    "studentCount": 23,
    "parentCount": 17
  },
  {
    "id": "d8519bdf-c8d5-48a0-968b-dfb0297f0b28",
    "name": "Växjö",
    "municipality": "Växjö",
    "coordinates": [56.8790044, 14.8058522],
    "contact": null,
    "studentCount": 8,
    "parentCount": 5
  },
  {
    "id": "b8033117-f6a5-42fd-8e30-3f9448a5c826",
    "name": "Lidingö stad",
    "municipality": "Lidingö stad",
    "coordinates": [59.36295999999999, 18.1468],
    "contact": null,
    "studentCount": 163,
    "parentCount": 110
  },
  {
    "id": "3e1845ff-923a-404d-9f7d-d484f20f396a",
    "name": "Malmö stad",
    "municipality": "Malmö stad",
    "coordinates": [55.5859461, 12.9467319],
    "contact": null,
    "studentCount": 50,
    "parentCount": 38
  },
  {
    "id": "675dc4d9-00f4-415c-9fb1-003d126126d9",
    "name": "Nacka",
    "municipality": "Nacka",
    "coordinates": [59.30531999999999, 18.2475],
    "contact": null,
    "studentCount": 167,
    "parentCount": 123
  },
  {
    "id": "d9ef6ee3-40f1-47b3-a39b-2356f46a3424",
    "name": "Mölndals stad",
    "municipality": "Mölndals stad",
    "coordinates": [57.5981734, 12.1015032],
    "contact": null,
    "studentCount": 18,
    "parentCount": 12
  },
  {
    "id": "94ca00b2-a21a-411e-bc69-527857d11179",
    "name": "Hällefors",
    "municipality": "Hällefors",
    "coordinates": [59.783688, 14.5225692],
    "contact": null,
    "studentCount": 1,
    "parentCount": 1
  },
  {
    "id": "902da594-233a-41f7-8fc3-e4115a18d432",
    "name": "Alingsås",
    "municipality": "Alingsås",
    "coordinates": [57.9300205, 12.5362113],
    "contact": null,
    "studentCount": 53,
    "parentCount": 30
  },
  {
    "id": "84a29547-32ca-4bda-a672-868f4f5dca61",
    "name": "Rättviks",
    "municipality": "Rättviks",
    "coordinates": [60.88762479999999, 15.123341],
    "contact": null,
    "studentCount": 4,
    "parentCount": 3
  },
  {
    "id": "46a89076-a69b-4dff-acb6-07611c7a3880",
    "name": "Hässleholms",
    "municipality": "Hässleholms",
    "coordinates": [56.15891449999999, 13.7667655],
    "contact": null,
    "studentCount": 7,
    "parentCount": 5
  },
  {
    "id": "6781de76-c8e1-4e2c-afae-1503ffbbab9e",
    "name": "Hudiksvalls",
    "municipality": "Hudiksvalls",
    "coordinates": [61.7273909, 17.107401],
    "contact": null,
    "studentCount": 4,
    "parentCount": 3
  },
  {
    "id": "aab784b6-5823-4f58-8dd1-dc89f69add94",
    "name": "Ängelholms",
    "municipality": "Ängelholms",
    "coordinates": [56.245748, 12.863881],
    "contact": null,
    "studentCount": 7,
    "parentCount": 5
  },
  {
    "id": "203d5283-32b9-46a6-a564-64682faa250d",
    "name": "Skövde",
    "municipality": "Skövde",
    "coordinates": [58.3902782, 13.8461208],
    "contact": null,
    "studentCount": 14,
    "parentCount": 11
  },
  {
    "id": "6976181f-85aa-43a9-8188-4765586ea98f",
    "name": "Kristianstads",
    "municipality": "Kristianstads",
    "coordinates": [56.0293936, 14.1566778],
    "contact": null,
    "studentCount": 8,
    "parentCount": 5
  },
  {
    "id": "c910171f-d6ea-467a-ac99-123c24262247",
    "name": "Varbergs",
    "municipality": "Varbergs",
    "coordinates": [57.107118, 12.2520907],
    "contact": null,
    "studentCount": 14,
    "parentCount": 8
  },
  {
    "id": "2d4ddf01-0fa0-497f-87ee-4f6dfe373b73",
    "name": "Älvdalens",
    "municipality": "Älvdalens",
    "coordinates": [61.22730600000001, 14.0419871],
    "contact": null,
    "studentCount": 1,
    "parentCount": 1
  },
  {
    "id": "5da84264-8b69-4076-860b-967eb016c08a",
    "name": "Tjörns",
    "municipality": "Tjörns",
    "coordinates": [57.9966563, 11.4132495],
    "contact": null,
    "studentCount": 6,
    "parentCount": 4
  },
  {
    "id": "3befc48b-02b8-4886-9ad6-0ff0dc9e356f",
    "name": "Östhammars",
    "municipality": "Östhammars",
    "coordinates": [60.2593019, 18.3653411],
    "contact": null,
    "studentCount": 1,
    "parentCount": 1
  },
  {
    "id": "70c92caa-27f8-49c6-a0b6-552e5bbd7663",
    "name": "Norrköpings",
    "municipality": "Norrköpings",
    "coordinates": [58.587745, 16.192421],
    "contact": null,
    "studentCount": 14,
    "parentCount": 10
  },
  {
    "id": "3241a8d9-d960-401f-9265-0811f87d6998",
    "name": "Ljusdals",
    "municipality": "Ljusdals",
    "coordinates": [61.8308392, 16.0817501],
    "contact": null,
    "studentCount": 4,
    "parentCount": 3
  },
  {
    "id": "7904b290-f566-42c9-ae62-cad1b2f75b72",
    "name": "Luleå",
    "municipality": "Luleå",
    "coordinates": [65.584819, 22.1567026],
    "contact": null,
    "studentCount": 33,
    "parentCount": 23
  },
  {
    "id": "179fd12d-140a-4aee-9cf8-396e073e47eb",
    "name": "Sundbybergs stad",
    "municipality": "Sundbybergs stad",
    "coordinates": [59.3741861, 17.9631555],
    "contact": null,
    "studentCount": 16,
    "parentCount": 13
  },
  {
    "id": "6a29e860-2114-497f-9fc4-1608c5d353bc",
    "name": "Knivsta",
    "municipality": "Knivsta",
    "coordinates": [59.7261195, 17.7920364],
    "contact": null,
    "studentCount": 5,
    "parentCount": 4
  },
  {
    "id": "d9c05b8e-b941-4662-82f6-5281bf4d8892",
    "name": "Ulricehamns",
    "municipality": "Ulricehamns",
    "coordinates": [57.7947889, 13.4205162],
    "contact": null,
    "studentCount": 5,
    "parentCount": 3
  },
  {
    "id": "2a105f63-1eaa-45c1-9451-f0950cfba201",
    "name": "Höörs",
    "municipality": "Höörs",
    "coordinates": [55.9348588, 13.5395904],
    "contact": null,
    "studentCount": 7,
    "parentCount": 3
  },
  {
    "id": "38a3ac6f-91c8-4d49-82ba-d633b713e003",
    "name": "Värmdö",
    "municipality": "Värmdö",
    "coordinates": [59.3163663, 18.4465719],
    "contact": null,
    "studentCount": 60,
    "parentCount": 40
  },
  {
    "id": "6851057d-0695-47ee-97e4-00f8a43e1ec5",
    "name": "Järfälla",
    "municipality": "Järfälla",
    "coordinates": [59.4431024, 17.8336732],
    "contact": null,
    "studentCount": 23,
    "parentCount": 12
  },
  {
    "id": "02986e36-1923-4565-91a1-6d2677881cdc",
    "name": "Motala",
    "municipality": "Motala",
    "coordinates": [58.5380335, 15.0470936],
    "contact": null,
    "studentCount": 3,
    "parentCount": 3
  },
  {
    "id": "feec83d5-ef9b-44b6-8951-58e161dce51e",
    "name": "Kungsbacka",
    "municipality": "Kungsbacka",
    "coordinates": [57.48749189999999, 12.0761927],
    "contact": null,
    "studentCount": 40,
    "parentCount": 29
  },
  {
    "id": "45cde97b-93c5-4bbd-8ddb-9867521ef422",
    "name": "Lunds",
    "municipality": "Lunds",
    "coordinates": [55.7046601, 13.1910073],
    "contact": null,
    "studentCount": 68,
    "parentCount": 45
  },
  {
    "id": "28a1a464-7e0a-4b37-8fd1-363ef8169f50",
    "name": "Trelleborgs",
    "municipality": "Trelleborgs",
    "coordinates": [55.3762427, 13.1574231],
    "contact": null,
    "studentCount": 2,
    "parentCount": 1
  },
  {
    "id": "964749ec-7c48-4560-b1ee-35e19fcff533",
    "name": "Vänersborgs",
    "municipality": "Vänersborgs",
    "coordinates": [58.3797283, 12.3248032],
    "contact": null,
    "studentCount": 13,
    "parentCount": 9
  },
  {
    "id": "c6a609d6-7e24-4725-9006-35fb6bfca0a2",
    "name": "Ovanåkers",
    "municipality": "Ovanåkers",
    "coordinates": [61.4469228, 15.7389221],
    "contact": null,
    "studentCount": 5,
    "parentCount": 3
  },
  {
    "id": "a72617f9-accf-4868-8cc7-7be524057b56",
    "name": "Sjöbo",
    "municipality": "Sjöbo",
    "coordinates": [55.634822, 13.70337],
    "contact": null,
    "studentCount": 6,
    "parentCount": 4
  },
  {
    "id": "8f161f05-43c6-45ba-ae93-da378ac88d8e",
    "name": "Umeå",
    "municipality": "Umeå",
    "coordinates": [63.8258471, 20.2630354],
    "contact": null,
    "studentCount": 31,
    "parentCount": 20
  },
  {
    "id": "20e1f7d5-4ede-4e86-aa41-a7e05a3f8f77",
    "name": "Staffanstorps",
    "municipality": "Staffanstorps",
    "coordinates": [55.641065, 13.212229],
    "contact": null,
    "studentCount": 20,
    "parentCount": 14
  },
  {
    "id": "559f7a44-9efe-481f-88c9-7c912059715a",
    "name": "Upplands-Bro",
    "municipality": "Upplands-Bro",
    "coordinates": [59.5412, 17.67157],
    "contact": null,
    "studentCount": 12,
    "parentCount": 6
  },
  {
    "id": "0ae2e801-c5d4-4a61-b8ca-0115d98ec678",
    "name": "Kungälvs",
    "municipality": "Kungälvs",
    "coordinates": [57.86975400000001, 11.9740317],
    "contact": null,
    "studentCount": 11,
    "parentCount": 6
  },
  {
    "id": "16c3381e-bf49-440d-bb82-1379a484aca3",
    "name": "Haninge",
    "municipality": "Haninge",
    "coordinates": [59.17554999999999, 18.1413702],
    "contact": null,
    "studentCount": 20,
    "parentCount": 12
  },
  {
    "id": "42b6189c-e7ab-44cb-a145-f85b3b2c5e1a",
    "name": "Jönköpings",
    "municipality": "Jönköpings",
    "coordinates": [57.78261370000001, 14.1617876],
    "contact": null,
    "studentCount": 15,
    "parentCount": 9
  },
  {
    "id": "2dada32a-9a12-44f3-891d-55e2859fa12e",
    "name": "Eslövs",
    "municipality": "Eslövs",
    "coordinates": [55.8391198, 13.3033914],
    "contact": null,
    "studentCount": 5,
    "parentCount": 4
  },
  {
    "id": "c4d82d3b-ee58-4811-a1c5-a5bfcbad84af",
    "name": "Västerås stad",
    "municipality": "Västerås stad",
    "coordinates": [59.60990049999999, 16.5448091],
    "contact": null,
    "studentCount": 17,
    "parentCount": 11
  },
  {
    "id": "f3385c99-8e36-49c8-95dc-3bf50224b8a5",
    "name": "Solna stad",
    "municipality": "Solna stad",
    "coordinates": [59.36419679999999, 18.0124231],
    "contact": null,
    "studentCount": 22,
    "parentCount": 18
  },
  {
    "id": "553dfbd6-1332-4aee-a4e7-b306e318c734",
    "name": "Lomma",
    "municipality": "Lomma",
    "coordinates": [55.6753618, 13.0714404],
    "contact": null,
    "studentCount": 3,
    "parentCount": 3
  },
  {
    "id": "88c887c5-5382-462e-bd63-f51cf328a003",
    "name": "Orsa",
    "municipality": "Orsa",
    "coordinates": [61.11581570000001, 14.6303809],
    "contact": null,
    "studentCount": 9,
    "parentCount": 7
  },
  {
    "id": "f6e6066f-0aa7-47a6-968f-53da55e0f68d",
    "name": "Halmstads",
    "municipality": "Halmstads",
    "coordinates": [56.6743748, 12.8577884],
    "contact": null,
    "studentCount": 11,
    "parentCount": 7
  },
  {
    "id": "b82e75b5-5c5d-4277-909b-55f30ec66a72",
    "name": "Salems",
    "municipality": "Salems",
    "coordinates": [59.23604, 17.70417],
    "contact": null,
    "studentCount": 31,
    "parentCount": 17
  },
  {
    "id": "dd3ae821-5b38-4505-9fe0-377fa5cf82ed",
    "name": "Enköpings",
    "municipality": "Enköpings",
    "coordinates": [59.63569090000001, 17.0778228],
    "contact": null,
    "studentCount": 8,
    "parentCount": 5
  },
  {
    "id": "6ff2b6a1-005c-4c6e-a472-c6196adb05ea",
    "name": "Eskilstuna",
    "municipality": "Eskilstuna",
    "coordinates": [59.37124859999999, 16.5098045],
    "contact": null,
    "studentCount": 8,
    "parentCount": 7
  },
  {
    "id": "3feb3d7c-8486-47e5-a749-5db6c2f689a0",
    "name": "Borås stad",
    "municipality": "Borås stad",
    "coordinates": [57.72103500000001, 12.939819],
    "contact": null,
    "studentCount": 10,
    "parentCount": 8
  },
  {
    "id": "6dc36196-b0e1-4730-821c-ae7c22310dba",
    "name": "Gävle",
    "municipality": "Gävle",
    "coordinates": [60.6748796, 17.1412726],
    "contact": null,
    "studentCount": 14,
    "parentCount": 9
  },
  {
    "id": "a88d8a17-9d22-4227-98b5-a28e319d4b9c",
    "name": "Tranås",
    "municipality": "Tranås",
    "coordinates": [58.035518, 14.975696],
    "contact": null,
    "studentCount": 6,
    "parentCount": 3
  },
  {
    "id": "5253b039-9f27-41de-b20d-c5469d459b76",
    "name": "Piteå",
    "municipality": "Piteå",
    "coordinates": [65.316698, 21.4800364],
    "contact": null,
    "studentCount": 7,
    "parentCount": 6
  },
  {
    "id": "43134b1d-d07d-40e5-8984-3ce0eeabcabe",
    "name": "Örebro",
    "municipality": "Örebro",
    "coordinates": [59.2752626, 15.2134105],
    "contact": null,
    "studentCount": 29,
    "parentCount": 18
  },
  {
    "id": "b7e0139c-8057-4c5c-bebe-20dee7d74218",
    "name": "Habo",
    "municipality": "Habo",
    "coordinates": [57.9093623, 14.0745539],
    "contact": null,
    "studentCount": 3,
    "parentCount": 2
  },
  {
    "id": "7b7e6586-786f-4935-814d-5d6887ed8cc3",
    "name": "Töreboda",
    "municipality": "Töreboda",
    "coordinates": [58.7043445, 14.1260717],
    "contact": null,
    "studentCount": 4,
    "parentCount": 2
  },
  {
    "id": "c04fb547-4ca7-4617-b85f-232e62c04d08",
    "name": "Mörbylånga",
    "municipality": "Mörbylånga",
    "coordinates": [56.5241245, 16.3884109],
    "contact": null,
    "studentCount": 2,
    "parentCount": 2
  },
  {
    "id": "a6c186c0-9e2b-42fc-ac5c-d46d27152e83",
    "name": "Härryda",
    "municipality": "Härryda",
    "coordinates": [57.69139449999999, 12.2826656],
    "contact": null,
    "studentCount": 6,
    "parentCount": 5
  },
  {
    "id": "9de05b1d-113b-464e-8610-95cd1f96aa0f",
    "name": "Sollentuna",
    "municipality": "Sollentuna",
    "coordinates": [59.43049730000001, 17.950916],
    "contact": null,
    "studentCount": 94,
    "parentCount": 62
  },
  {
    "id": "573bc350-6e35-4634-9969-a79731daa7b6",
    "name": "Vellinge",
    "municipality": "Vellinge",
    "coordinates": [55.47089279999999, 13.0199899],
    "contact": null,
    "studentCount": 29,
    "parentCount": 21
  },
  {
    "id": "0e9e9f42-981f-49ac-a91c-ed07f24e98df",
    "name": "Gällivare",
    "municipality": "Gällivare",
    "coordinates": [67.1379, 20.6593618],
    "contact": null,
    "studentCount": 2,
    "parentCount": 1
  },
  {
    "id": "d304937b-6de9-4213-91f5-555ef16d13c5",
    "name": "Upplands Väsby",
    "municipality": "Upplands Väsby",
    "coordinates": [59.51961, 17.92834],
    "contact": null,
    "studentCount": 16,
    "parentCount": 10
  },
  {
    "id": "72e53d8f-51b8-4c4d-9862-0d0ae551b43a",
    "name": "Strängnäs",
    "municipality": "Strängnäs",
    "coordinates": [59.37745229999999, 17.0321193],
    "contact": null,
    "studentCount": 42,
    "parentCount": 28
  },
  {
    "id": "5de7384a-cb46-47b8-96aa-465175239759",
    "name": "Ludvika",
    "municipality": "Ludvika",
    "coordinates": [60.152358, 15.191639],
    "contact": null,
    "studentCount": 3,
    "parentCount": 3
  },
  {
    "id": "11a67862-a014-4965-94d7-db5b592ac7e3",
    "name": "Helsingborgs stad",
    "municipality": "Helsingborgs stad",
    "coordinates": [56.0571376, 12.7706044],
    "contact": null,
    "studentCount": 36,
    "parentCount": 24
  },
  {
    "id": "b501b050-b1cd-4fc4-a6ca-cac560c2b438",
    "name": "Tyresö",
    "municipality": "Tyresö",
    "coordinates": [59.2425954, 18.2833919],
    "contact": null,
    "studentCount": 32,
    "parentCount": 20
  },
  {
    "id": "7f621e0d-6c0b-4f25-af06-8b5de6723cab",
    "name": "Norrtälje",
    "municipality": "Norrtälje",
    "coordinates": [59.7595841, 18.7013584],
    "contact": null,
    "studentCount": 16,
    "parentCount": 8
  },
  {
    "id": "816eaf76-9992-415e-96e1-a9944a997381",
    "name": "Ystads",
    "municipality": "Ystads",
    "coordinates": [55.4295051, 13.8200308],
    "contact": null,
    "studentCount": 3,
    "parentCount": 2
  },
  {
    "id": "9b412ff5-2a1b-4a70-a60e-09a5adeb14ea",
    "name": "Skellefteå",
    "municipality": "Skellefteå",
    "coordinates": [64.750244, 20.950917],
    "contact": null,
    "studentCount": 11,
    "parentCount": 9
  },
  {
    "id": "ef63a018-4b84-42cc-8004-4c832fed145e",
    "name": "Region Gotland",
    "municipality": "Region Gotland",
    "coordinates": [57.531291, 18.6901396],
    "contact": null,
    "studentCount": 6,
    "parentCount": 4
  },
  {
    "id": "f5c5cdd1-e413-47d5-b9ea-2be9d88f3862",
    "name": "Kävlinge",
    "municipality": "Kävlinge",
    "coordinates": [55.7939999, 13.1104293],
    "contact": null,
    "studentCount": 14,
    "parentCount": 9
  },
  {
    "id": "e5f7b18b-f403-4105-800f-d7398b4eb79c",
    "name": "Vallentuna",
    "municipality": "Vallentuna",
    "coordinates": [59.53569999999999, 18.078017],
    "contact": null,
    "studentCount": 21,
    "parentCount": 17
  },
  {
    "id": "2fb6613b-b3fd-420a-81bc-db0787d83c64",
    "name": "Burlövs",
    "municipality": "Burlövs",
    "coordinates": [55.633333, 13.1],
    "contact": null,
    "studentCount": 8,
    "parentCount": 3
  },
  {
    "id": "c30e9365-04d6-4e4c-ab5a-a82d099b7dd9",
    "name": "Mora",
    "municipality": "Mora",
    "coordinates": [61.004878, 14.537003],
    "contact": null,
    "studentCount": 5,
    "parentCount": 4
  },
  {
    "id": "462ab750-50b8-43b7-b614-abc591c8d3ea",
    "name": "Sandvikens",
    "municipality": "Sandvikens",
    "coordinates": [57.0722428, 16.8565086],
    "contact": null,
    "studentCount": 3,
    "parentCount": 2
  },
  {
    "id": "584eb44f-65ef-4b1a-a9eb-8d9ec8e27d6c",
    "name": "Vansbro",
    "municipality": "Vansbro",
    "coordinates": [60.5099434, 14.2253417],
    "contact": null,
    "studentCount": 1,
    "parentCount": 1
  },
  {
    "id": "869d83f6-af34-4b31-b2c9-cfae788714f2",
    "name": "Sigtuna",
    "municipality": "Sigtuna",
    "coordinates": [59.6191463, 17.7234191],
    "contact": null,
    "studentCount": 9,
    "parentCount": 7
  },
  {
    "id": "d044dc8a-65c9-4966-afb9-0c93a3a4826a",
    "name": "Lerums",
    "municipality": "Lerums",
    "coordinates": [57.7694839, 12.2688197],
    "contact": null,
    "studentCount": 17,
    "parentCount": 11
  },
  {
    "id": "e7e7cf3d-7fc1-42c7-bd05-99174cb1cd4b",
    "name": "Nyköpings",
    "municipality": "Nyköpings",
    "coordinates": [58.8213814, 16.9259105],
    "contact": null,
    "studentCount": 9,
    "parentCount": 7
  },
  {
    "id": "53a11140-d1da-438a-ae38-c305902951d2",
    "name": "Linköpings",
    "municipality": "Linköpings",
    "coordinates": [58.41080700000001, 15.6213727],
    "contact": null,
    "studentCount": 22,
    "parentCount": 13
  },
  {
    "id": "c41a771c-412f-4180-8c5d-5f873d9d7643",
    "name": "Södertälje",
    "municipality": "Södertälje",
    "coordinates": [59.197762, 17.6201942],
    "contact": null,
    "studentCount": 24,
    "parentCount": 18
  },
  {
    "id": "4eccd6bf-3b0d-442c-a5a7-cc54700e2b4c",
    "name": "Kumla",
    "municipality": "Kumla",
    "coordinates": [59.12653590000001, 15.1401053],
    "contact": null,
    "studentCount": 6,
    "parentCount": 3
  },
  {
    "id": "01d4ec2f-bc9c-4b8f-b040-382a7e525bf6",
    "name": "Leksands",
    "municipality": "Leksands",
    "coordinates": [60.7303082, 14.9998922],
    "contact": null,
    "studentCount": 13,
    "parentCount": 8
  },
  {
    "id": "9901648c-9f4c-459e-9e6b-7a2f983849df",
    "name": "Torsby",
    "municipality": "Torsby",
    "coordinates": [60.14090719999999, 13.0102132],
    "contact": null,
    "studentCount": 1,
    "parentCount": 1
  },
  {
    "id": "6deda5f0-745e-4aa9-9837-6620cda23011",
    "name": "Trollhättans stad",
    "municipality": "Trollhättans stad",
    "coordinates": [58.282653, 12.2893687],
    "contact": null,
    "studentCount": 7,
    "parentCount": 4
  },
  {
    "id": "7517bb69-f41f-4694-a3b9-021980e4bbfa",
    "name": "Kils",
    "municipality": "Kils",
    "coordinates": [59.5883244, 13.2368047],
    "contact": null,
    "studentCount": 2,
    "parentCount": 1
  },
  {
    "id": "2c5746f1-27b2-47d8-9bd9-3a53e3d557de",
    "name": "Hallsbergs",
    "municipality": "Hallsbergs",
    "coordinates": [59.0665316, 15.10229],
    "contact": null,
    "studentCount": 2,
    "parentCount": 1
  },
  {
    "id": "90318835-73d5-4add-a22a-81851ea30c58",
    "name": "Forshaga",
    "municipality": "Forshaga",
    "coordinates": [59.52976049999999, 13.4860836],
    "contact": null,
    "studentCount": 1,
    "parentCount": 1
  },
  {
    "id": "f879afdf-4879-4419-b404-0af053b82956",
    "name": "Krokoms",
    "municipality": "Krokoms",
    "coordinates": [63.3262424, 14.4486544],
    "contact": null,
    "studentCount": 17,
    "parentCount": 8
  },
  {
    "id": "78c154ff-b8e4-4ab4-8550-10bc49aa733d",
    "name": "Båstads",
    "municipality": "Båstads",
    "coordinates": [56.4333027, 12.8353785],
    "contact": null,
    "studentCount": 2,
    "parentCount": 1
  },
  {
    "id": "7c09d035-315e-488c-9c3b-2debe357de9a",
    "name": "Flens",
    "municipality": "Flens",
    "coordinates": [59.0579376, 16.5879122],
    "contact": null,
    "studentCount": 1,
    "parentCount": 1
  },
  {
    "id": "5f655385-79c6-4baa-b867-0f310af7e9b5",
    "name": "Gnosjö",
    "municipality": "Gnosjö",
    "coordinates": [57.35803979999999, 13.7371898],
    "contact": null,
    "studentCount": 1,
    "parentCount": 1
  },
  {
    "id": "17c99b0d-1878-44cd-9475-4c65244a0337",
    "name": "Håbo",
    "municipality": "Håbo",
    "coordinates": [57.9093623, 14.0745539],
    "contact": null,
    "studentCount": 13,
    "parentCount": 10
  },
  {
    "id": "3499e13a-be05-4aa0-b97c-9e7c22cf10d6",
    "name": "Lycksele",
    "municipality": "Lycksele",
    "coordinates": [64.5958098, 18.676367],
    "contact": null,
    "studentCount": 5,
    "parentCount": 4
  },
  {
    "id": "1e171ec6-b65e-4edc-87a9-dae20ae566b0",
    "name": "Höganäs",
    "municipality": "Höganäs",
    "coordinates": [56.2006388, 12.5553288],
    "contact": null,
    "studentCount": 104,
    "parentCount": 72
  },
  {
    "id": "26f68c5a-fdb0-4e34-a4dd-e6bd1f8fac19",
    "name": "Ekerö",
    "municipality": "Ekerö",
    "coordinates": [59.2798338, 17.7902246],
    "contact": null,
    "studentCount": 21,
    "parentCount": 11
  },
  {
    "id": "ef84dafe-5563-449b-aa68-a29fce43f38f",
    "name": "Trosa",
    "municipality": "Trosa",
    "coordinates": [58.902655, 17.5494638],
    "contact": null,
    "studentCount": 10,
    "parentCount": 7
  },
  {
    "id": "b03a56fe-3cba-4b6e-8320-0a84924788d5",
    "name": "Kalmar",
    "municipality": "Kalmar",
    "coordinates": [56.6634447, 16.356779],
    "contact": null,
    "studentCount": 14,
    "parentCount": 10
  },
  {
    "id": "3a9a9747-04f9-4b03-85d4-b97c0dd7aee1",
    "name": "Svenljunga",
    "municipality": "Svenljunga",
    "coordinates": [57.4955715, 13.1146225],
    "contact": null,
    "studentCount": 7,
    "parentCount": 3
  },
  {
    "id": "9c25d52a-b3ae-4c04-a50b-f2fa384b7deb",
    "name": "Tranemo",
    "municipality": "Tranemo",
    "coordinates": [57.4855688, 13.35241],
    "contact": null,
    "studentCount": 6,
    "parentCount": 4
  },
  {
    "id": "8736a50c-38d7-4fdd-b1f2-923120163869",
    "name": "Avesta",
    "municipality": "Avesta",
    "coordinates": [60.14532999999999, 16.1738399],
    "contact": null,
    "studentCount": 1,
    "parentCount": 1
  },
  {
    "id": "2d809f28-85ef-40a7-8dcd-093d41275834",
    "name": "Bollnäs",
    "municipality": "Bollnäs",
    "coordinates": [61.34837950000001, 16.3942685],
    "contact": null,
    "studentCount": 2,
    "parentCount": 1
  },
  {
    "id": "37449d5b-d394-4f88-8df7-703ff14b737d",
    "name": "Lindesbergs",
    "municipality": "Lindesbergs",
    "coordinates": [59.5976983, 15.2229108],
    "contact": null,
    "studentCount": 6,
    "parentCount": 4
  },
  {
    "id": "da66f94d-de4b-4e35-a7e5-deb1d2b82290",
    "name": "Eksjö",
    "municipality": "Eksjö",
    "coordinates": [57.6172, 15.22155],
    "contact": null,
    "studentCount": 3,
    "parentCount": 3
  },
  {
    "id": "fe4fc40c-498c-45ca-814f-b039323b7df7",
    "name": "Sundsvalls",
    "municipality": "Sundsvalls",
    "coordinates": [62.390811, 17.306927],
    "contact": null,
    "studentCount": 7,
    "parentCount": 5
  },
  {
    "id": "21f67b6f-a424-45e2-b7c0-1575c65419bc",
    "name": "Laholms",
    "municipality": "Laholms",
    "coordinates": [56.50575569999999, 13.0456048],
    "contact": null,
    "studentCount": 5,
    "parentCount": 3
  },
  {
    "id": "e488ede7-fb83-4194-bb86-b52393ed6f83",
    "name": "Örkelljunga",
    "municipality": "Örkelljunga",
    "coordinates": [56.283635, 13.278832],
    "contact": null,
    "studentCount": 1,
    "parentCount": 1
  },
  {
    "id": "b3454e81-a408-4339-bde8-f0b94a65dbf1",
    "name": "Mjölby",
    "municipality": "Mjölby",
    "coordinates": [58.3226908, 15.1335348],
    "contact": null,
    "studentCount": 6,
    "parentCount": 3
  },
  {
    "id": "9c4c21ee-27df-4335-9ac2-bc503acec5fc",
    "name": "Lidköpings",
    "municipality": "Lidköpings",
    "coordinates": [58.5035047, 13.1570768],
    "contact": null,
    "studentCount": 16,
    "parentCount": 9
  },
  {
    "id": "f3b7267d-f39e-4e89-9fa6-5d1ef9efdf7f",
    "name": "Härnösands",
    "municipality": "Härnösands",
    "coordinates": [62.6322698, 17.9408714],
    "contact": null,
    "studentCount": 1,
    "parentCount": 1
  },
  {
    "id": "dcd16a29-03fb-42e5-bb33-66748b235867",
    "name": "Finspångs",
    "municipality": "Finspångs",
    "coordinates": [58.7074884, 15.773595],
    "contact": null,
    "studentCount": 3,
    "parentCount": 2
  },
  {
    "id": "d6de8857-6888-411e-8260-7bf7d5036486",
    "name": "Timrå",
    "municipality": "Timrå",
    "coordinates": [62.4854563, 17.3248651],
    "contact": null,
    "studentCount": 5,
    "parentCount": 3
  },
  {
    "id": "9e23ec35-c783-4f74-83ed-0d5e8f570636",
    "name": "Karlstads",
    "municipality": "Karlstads",
    "coordinates": [59.3783091, 13.4967921],
    "contact": null,
    "studentCount": 7,
    "parentCount": 4
  },
  {
    "id": "871b9041-8c41-4656-9776-80ed057d1cb7",
    "name": "Västerviks",
    "municipality": "Västerviks",
    "coordinates": [57.75771559999999, 16.6369759],
    "contact": null,
    "studentCount": 4,
    "parentCount": 2
  },
  {
    "id": "2434c839-8221-4853-9261-fe7ae1955410",
    "name": "Landskrona stad",
    "municipality": "Landskrona stad",
    "coordinates": [55.8703477, 12.8300802],
    "contact": null,
    "studentCount": 12,
    "parentCount": 9
  },
  {
    "id": "c3416469-7e9f-4ff9-ad54-6ff974e6a86e",
    "name": "Tomelilla",
    "municipality": "Tomelilla",
    "coordinates": [55.54188869999999, 13.9538845],
    "contact": null,
    "studentCount": 3,
    "parentCount": 2
  },
  {
    "id": "214a0e80-2bb3-4d1d-bd2b-78ebbcf9c9dd",
    "name": "Vimmerby",
    "municipality": "Vimmerby",
    "coordinates": [57.6690339, 15.858857],
    "contact": null,
    "studentCount": 6,
    "parentCount": 4
  },
  {
    "id": "9a4be0d0-b4fc-4df0-b934-6300ccf30790",
    "name": "Ale",
    "municipality": "Ale",
    "coordinates": [57.988605, 12.2344546],
    "contact": null,
    "studentCount": 14,
    "parentCount": 10
  },
  {
    "id": "9ef81b0e-8af8-41b1-9a80-9dbc19107246",
    "name": "Svedala",
    "municipality": "Svedala",
    "coordinates": [55.5089084, 13.2371097],
    "contact": null,
    "studentCount": 7,
    "parentCount": 4
  },
  {
    "id": "00864adc-3668-4a95-acb2-2e806da3acd3",
    "name": "Karlskoga",
    "municipality": "Karlskoga",
    "coordinates": [59.32863399999999, 14.536414],
    "contact": null,
    "studentCount": 3,
    "parentCount": 3
  },
  {
    "id": "31abf93a-b6e9-4802-ad09-0ae5f0d18baa",
    "name": "Skurups",
    "municipality": "Skurups",
    "coordinates": [55.48045, 13.502349],
    "contact": null,
    "studentCount": 2,
    "parentCount": 1
  },
  {
    "id": "b66bd27e-9e40-4ad0-8474-078e3759ef76",
    "name": "Uddevalla",
    "municipality": "Uddevalla",
    "coordinates": [58.3498003, 11.935649],
    "contact": null,
    "studentCount": 10,
    "parentCount": 8
  },
  {
    "id": "d2d2fff0-e34b-42f1-a661-ac48c8f355f5",
    "name": "Vaggeryds",
    "municipality": "Vaggeryds",
    "coordinates": [57.4989621, 14.1486297],
    "contact": null,
    "studentCount": 1,
    "parentCount": 1
  },
  {
    "id": "277d13c1-51cf-43ed-a694-07be88b7e1e6",
    "name": "Hjo",
    "municipality": "Hjo",
    "coordinates": [58.3070702, 14.2874663],
    "contact": null,
    "studentCount": 4,
    "parentCount": 3
  },
  {
    "id": "c73bb49d-bb3e-464f-9e25-9273fbe98e57",
    "name": "Mariestads",
    "municipality": "Mariestads",
    "coordinates": [58.7101119, 13.8213327],
    "contact": null,
    "studentCount": 3,
    "parentCount": 3
  },
  {
    "id": "e5b87bf2-b91f-4e6b-b769-67a9cff1a0f4",
    "name": "Herrljunga",
    "municipality": "Herrljunga",
    "coordinates": [58.0780287, 13.0188387],
    "contact": null,
    "studentCount": 19,
    "parentCount": 16
  },
  {
    "id": "cf053f57-d2cc-406b-ae37-26ffc9a3c196",
    "name": "Stenungsunds",
    "municipality": "Stenungsunds",
    "coordinates": [58.0678388, 11.8294346],
    "contact": null,
    "studentCount": 5,
    "parentCount": 3
  },
  {
    "id": "d609be08-1d8f-4be3-9b85-7e23e899436f",
    "name": "Hultsfreds",
    "municipality": "Hultsfreds",
    "coordinates": [57.49484, 15.8416513],
    "contact": null,
    "studentCount": 2,
    "parentCount": 2
  },
  {
    "id": "61793b48-aa0b-44ce-9668-67f138848bcb",
    "name": "Bollebygds",
    "municipality": "Bollebygds",
    "coordinates": [57.66896910000001, 12.5701434],
    "contact": null,
    "studentCount": 2,
    "parentCount": 1
  },
  {
    "id": "a92043b8-4d9a-44de-96ae-0e9773a3df83",
    "name": "Hedemora",
    "municipality": "Hedemora",
    "coordinates": [60.2775453, 15.985892],
    "contact": null,
    "studentCount": 13,
    "parentCount": 7
  },
  {
    "id": "bfd7ccfc-6e7c-40f0-be40-93868f97f20d",
    "name": "Hammarö",
    "municipality": "Hammarö",
    "coordinates": [59.33333, 13.51667],
    "contact": null,
    "studentCount": 5,
    "parentCount": 3
  },
  {
    "id": "9173b2d8-ff06-4617-b440-0c6a77e29941",
    "name": "Partille",
    "municipality": "Partille",
    "coordinates": [57.7366497, 12.1251968],
    "contact": null,
    "studentCount": 16,
    "parentCount": 12
  },
  {
    "id": "bf387083-677f-44a2-8e09-6cbe2a08f878",
    "name": "Svalövs",
    "municipality": "Svalövs",
    "coordinates": [55.95632999999999, 13.13318],
    "contact": null,
    "studentCount": 2,
    "parentCount": 1
  },
  {
    "id": "86d64fb5-3cb8-4b70-9c5e-5114ec5bcc5f",
    "name": "Smedjebackens",
    "municipality": "Smedjebackens",
    "coordinates": [60.1431933, 15.4159915],
    "contact": null,
    "studentCount": 1,
    "parentCount": 1
  },
  {
    "id": "4db43124-5349-4e74-867c-c616e6e74af6",
    "name": "Vaxholms stad",
    "municipality": "Vaxholms stad",
    "coordinates": [59.40329679999999, 18.3263804],
    "contact": null,
    "studentCount": 2,
    "parentCount": 2
  },
  {
    "id": "39049d3e-f710-495b-8be3-aeb17d00553f",
    "name": "Klippans",
    "municipality": "Klippans",
    "coordinates": [56.1348998, 13.1290409],
    "contact": null,
    "studentCount": 1,
    "parentCount": 1
  },
  {
    "id": "5ea75046-e7f1-4860-a4ed-ba87b38c80e3",
    "name": "Sala",
    "municipality": "Sala",
    "coordinates": [59.9208594, 16.606328],
    "contact": null,
    "studentCount": 2,
    "parentCount": 2
  },
  {
    "id": "ea4ec5a2-3fd2-4a52-9944-214908d50df4",
    "name": "Vännäs",
    "municipality": "Vännäs",
    "coordinates": [63.908007, 19.752965],
    "contact": null,
    "studentCount": 1,
    "parentCount": 1
  },
  {
    "id": "c19f901e-4b26-4399-98e3-0a7a6d4ac7ec",
    "name": "Katrineholms",
    "municipality": "Katrineholms",
    "coordinates": [58.99555109999999, 16.2054756],
    "contact": null,
    "studentCount": 1,
    "parentCount": 1
  },
  {
    "id": "928d111c-c315-4eda-b306-f3050ae90c84",
    "name": "Gislaveds",
    "municipality": "Gislaveds",
    "coordinates": [57.23815159999999, 13.4751104],
    "contact": null,
    "studentCount": 1,
    "parentCount": 1
  },
  {
    "id": "102af34b-14bd-43ae-82e9-f2e6c8e39f1f",
    "name": "Lysekils",
    "municipality": "Lysekils",
    "coordinates": [58.27557299999999, 11.435558],
    "contact": null,
    "studentCount": 16,
    "parentCount": 8
  },
  {
    "id": "c18b2a3a-7059-48b7-ac29-ad299d9a2258",
    "name": "Sollefteå",
    "municipality": "Sollefteå",
    "coordinates": [63.1654065, 17.277135],
    "contact": null,
    "studentCount": 5,
    "parentCount": 4
  },
  {
    "id": "1c2d549b-1057-4587-9507-964d111028fc",
    "name": "Nynäshamns",
    "municipality": "Nynäshamns",
    "coordinates": [58.90292600000001, 17.9465289],
    "contact": null,
    "studentCount": 6,
    "parentCount": 2
  },
  {
    "id": "d9b27bbe-d589-403d-99a2-09e9fe0270e7",
    "name": "Kiruna",
    "municipality": "Kiruna",
    "coordinates": [67.8557995, 20.2252821],
    "contact": null,
    "studentCount": 26,
    "parentCount": 11
  },
  {
    "id": "f352734e-fc11-466d-a6ad-bb3f4031e2fd",
    "name": "Tierps",
    "municipality": "Tierps",
    "coordinates": [60.34758659999999, 17.5205086],
    "contact": null,
    "studentCount": 1,
    "parentCount": 1
  },
  {
    "id": "9ae4d741-9fa4-4231-9ff5-aaf7de883745",
    "name": "Tidaholms",
    "municipality": "Tidaholms",
    "coordinates": [58.1817692, 13.9594737],
    "contact": null,
    "studentCount": 1,
    "parentCount": 1
  },
  {
    "id": "31a1f44d-74b1-432b-ae46-6dd6324058ae",
    "name": "Gagnefs",
    "municipality": "Gagnefs",
    "coordinates": [60.59098299999999, 15.0700491],
    "contact": null,
    "studentCount": 1,
    "parentCount": 1
  },
  {
    "id": "979f6431-7c82-4ecc-9f11-5eb1bac534c1",
    "name": "Karlskrona",
    "municipality": "Karlskrona",
    "coordinates": [56.161224, 15.5869],
    "contact": null,
    "studentCount": 3,
    "parentCount": 2
  },
  {
    "id": "97764cd0-9b13-49a4-ac60-628b70d8261c",
    "name": "Gnesta",
    "municipality": "Gnesta",
    "coordinates": [59.04834830000001, 17.3072276],
    "contact": null,
    "studentCount": 32,
    "parentCount": 23
  },
  {
    "id": "5878a830-41c3-4c86-a2b7-aeda606e8b88",
    "name": "Köpings",
    "municipality": "Köpings",
    "coordinates": [59.56821469999999, 15.905622],
    "contact": null,
    "studentCount": 1,
    "parentCount": 1
  },
  {
    "id": "86560e99-67c3-484b-81ea-ce1fadd94f64",
    "name": "Lekebergs",
    "municipality": "Lekebergs",
    "coordinates": [59.1569227, 14.8163248],
    "contact": null,
    "studentCount": 1,
    "parentCount": 1
  },
  {
    "id": "52f0169e-4307-442e-b058-8f9fd090659c",
    "name": "Karlsborgs",
    "municipality": "Karlsborgs",
    "coordinates": [58.5300853, 14.5105655],
    "contact": null,
    "studentCount": 2,
    "parentCount": 2
  },
  {
    "id": "bd530f90-6ce3-4a50-a268-53b8ff745923",
    "name": "Vadstena",
    "municipality": "Vadstena",
    "coordinates": [58.44760219999999, 14.8902335],
    "contact": null,
    "studentCount": 2,
    "parentCount": 1
  },
  {
    "id": "679f24ce-9427-4736-9ba4-05b619ea928f",
    "name": "Ljusnarsbergs",
    "municipality": "Ljusnarsbergs",
    "coordinates": [59.8774473, 14.9988486],
    "contact": null,
    "studentCount": 3,
    "parentCount": 1
  },
  {
    "id": "3133c1f5-629b-43eb-80b4-2ca1e470b199",
    "name": "Falköpings",
    "municipality": "Falköpings",
    "coordinates": [58.17502899999999, 13.553217],
    "contact": null,
    "studentCount": 16,
    "parentCount": 11
  },
  {
    "id": "3a253521-72e0-48e3-bb8f-8a51d00ceae9",
    "name": "Nybro",
    "municipality": "Nybro",
    "coordinates": [56.7437998, 15.9086806],
    "contact": null,
    "studentCount": 2,
    "parentCount": 2
  },
  {
    "id": "555d908e-ca3a-46d9-a166-6f6a8323d462",
    "name": "Falkenbergs",
    "municipality": "Falkenbergs",
    "coordinates": [56.90273329999999, 12.4888013],
    "contact": null,
    "studentCount": 4,
    "parentCount": 3
  },
  {
    "id": "6a3f6fdb-4155-4d2b-aa95-4b57068f41b6",
    "name": "Åtvidabergs",
    "municipality": "Åtvidabergs",
    "coordinates": [58.2007895, 15.9976986],
    "contact": null,
    "studentCount": 1,
    "parentCount": 1
  },
  {
    "id": "ae5fef77-e873-402f-9952-d949a9ccd8cc",
    "name": "Oxelösunds",
    "municipality": "Oxelösunds",
    "coordinates": [58.6754851, 17.0749546],
    "contact": null,
    "studentCount": 1,
    "parentCount": 1
  },
  {
    "id": "240d01c8-94bd-465d-b76b-d80e5ed01c5f",
    "name": "Melleruds",
    "municipality": "Melleruds",
    "coordinates": [58.7025681, 12.4518424],
    "contact": null,
    "studentCount": 2,
    "parentCount": 2
  },
  {
    "id": "0d6fb99c-58b7-4280-bd36-06ddb25fc1bc",
    "name": "Surahammars",
    "municipality": "Surahammars",
    "coordinates": [59.70722619999999, 16.2268409],
    "contact": null,
    "studentCount": 1,
    "parentCount": 1
  },
  {
    "id": "a1a224b8-c612-4965-a056-a301104698a7",
    "name": "Säters",
    "municipality": "Säters",
    "coordinates": [60.34665, 15.7479],
    "contact": null,
    "studentCount": 1,
    "parentCount": 1
  },
  {
    "id": "09597926-b4ed-45ca-b96d-c5567593e508",
    "name": "Härjedalens",
    "municipality": "Härjedalens",
    "coordinates": [62.3693406, 13.4079713],
    "contact": null,
    "studentCount": 2,
    "parentCount": 1
  },
  {
    "id": "a372056e-3d27-446f-bf94-3e025da5fe22",
    "name": "Götene",
    "municipality": "Götene",
    "coordinates": [58.528002, 13.491428],
    "contact": null,
    "studentCount": 5,
    "parentCount": 3
  },
  {
    "id": "a07af4fa-9725-415c-bbd4-8d10c9dae963",
    "name": "Markaryds",
    "municipality": "Markaryds",
    "coordinates": [56.4617744, 13.5962744],
    "contact": null,
    "studentCount": 1,
    "parentCount": 1
  },
  {
    "id": "e87fdcaa-b14c-4c60-b69a-748ad4032ba4",
    "name": "Borlänge",
    "municipality": "Borlänge",
    "coordinates": [60.484304, 15.433969],
    "contact": null,
    "studentCount": 6,
    "parentCount": 6
  },
  {
    "id": "d25388c0-7711-45b7-8124-aeac4a45afbc",
    "name": "Kramfors",
    "municipality": "Kramfors",
    "coordinates": [62.9284332, 17.7862947],
    "contact": null,
    "studentCount": 1,
    "parentCount": 1
  },
  {
    "id": "d5af8e29-04b6-484a-9779-acf7e62f67b7",
    "name": "Perstorps",
    "municipality": "Perstorps",
    "coordinates": [56.137972, 13.3949862],
    "contact": null,
    "studentCount": 1,
    "parentCount": 1
  },
  {
    "id": "6dbfd75b-6708-468d-9438-cfb52274b1b0",
    "name": "Hallstahammars",
    "municipality": "Hallstahammars",
    "coordinates": [59.6132041, 16.2294755],
    "contact": null,
    "studentCount": 1,
    "parentCount": 1
  },
  {
    "id": "a6b22d68-72c2-4f65-a0e0-b44b5c613e37",
    "name": "Jokkmokk",
    "municipality": "Jokkmokk",
    "coordinates": [66.60696089999999, 19.8229206],
    "contact": null,
    "studentCount": 8,
    "parentCount": 4
  },
  {
    "id": "ed7efcce-36f3-4593-8bc8-c58e70391ec8",
    "name": "Stockholm stad",
    "municipality": "Stockholm stad",
    "coordinates": [59.3327036, 18.0656255],
    "contact": null,
    "studentCount": 208,
    "parentCount": 160
  },
  {
    "id": "88caa9b1-aeab-43e0-8971-3ec9042c9bea",
    "name": "Lerum",
    "municipality": "Lerum",
    "coordinates": [57.7694839, 12.2688197],
    "contact": null,
    "studentCount": 22,
    "parentCount": 18
  },
  {
    "id": "db81cea0-5598-4c91-99ed-640b414100bb",
    "name": "Lidingö",
    "municipality": "Lidingö",
    "coordinates": [59.36295999999999, 18.1468],
    "contact": null,
    "studentCount": 35,
    "parentCount": 26
  },
  {
    "id": "83cc4f7a-84f8-4fa4-8b55-9bf52b7061f9",
    "name": "Vetlanda",
    "municipality": "Vetlanda",
    "coordinates": [57.42746, 15.08533],
    "contact": null,
    "studentCount": 5,
    "parentCount": 2
  },
  {
    "id": "b97924e8-5494-492f-b96b-1bc90c1d871a",
    "name": "Hässleholm",
    "municipality": "Hässleholm",
    "coordinates": [56.15891449999999, 13.7667655],
    "contact": null,
    "studentCount": 5,
    "parentCount": 4
  },
  {
    "id": "f2e1b0c1-dc70-4c9b-a0c4-174d775354c0",
    "name": "Åstorp",
    "municipality": "Åstorp",
    "coordinates": [56.134262, 12.945908],
    "contact": null,
    "studentCount": 2,
    "parentCount": 1
  },
  {
    "id": "0ee25431-9fa6-4e81-8d25-b5a3affbb6d6",
    "name": "Österåker",
    "municipality": "Österåker",
    "coordinates": [59.481773, 18.2979379],
    "contact": null,
    "studentCount": 19,
    "parentCount": 15
  },
  {
    "id": "d45a50f0-fef9-45be-a32e-c2f6f130f484",
    "name": "Finspång",
    "municipality": "Finspång",
    "coordinates": [58.7074884, 15.773595],
    "contact": null,
    "studentCount": 2,
    "parentCount": 1
  },
  {
    "id": "d9238cc7-e012-4923-91f9-3b25e52e953d",
    "name": "Falköping",
    "municipality": "Falköping",
    "coordinates": [58.17502899999999, 13.553217],
    "contact": null,
    "studentCount": 13,
    "parentCount": 10
  },
  {
    "id": "73f10b76-4794-4089-8469-4956f2d8d44b",
    "name": "Uppvidinge",
    "municipality": "Uppvidinge",
    "coordinates": [57.04025000000001, 15.4331],
    "contact": null,
    "studentCount": 1,
    "parentCount": 1
  },
  {
    "id": "f1f48109-d501-49d8-9213-3995babaf118",
    "name": "Lidköping",
    "municipality": "Lidköping",
    "coordinates": [58.5035047, 13.1570768],
    "contact": null,
    "studentCount": 7,
    "parentCount": 6
  },
  {
    "id": "276d0f71-aab5-421d-a1a8-8c15daf1c2a7",
    "name": "Säter",
    "municipality": "Säter",
    "coordinates": [60.34665, 15.7479],
    "contact": null,
    "studentCount": 2,
    "parentCount": 1
  },
  {
    "id": "e0bc204a-011f-4443-8b9d-7825952b3a45",
    "name": "Falun",
    "municipality": "Falun",
    "coordinates": [60.60646000000001, 15.6355],
    "contact": null,
    "studentCount": 13,
    "parentCount": 12
  },
  {
    "id": "fe4e6e27-a26c-42e2-b647-f93d53f5d61c",
    "name": "Enköping",
    "municipality": "Enköping",
    "coordinates": [59.63569090000001, 17.0778228],
    "contact": null,
    "studentCount": 1,
    "parentCount": 1
  },
  {
    "id": "19d25dd3-ab8c-4c78-88c3-6b01941cbf86",
    "name": "Tjörn",
    "municipality": "Tjörn",
    "coordinates": [58.00971000000001, 11.63221],
    "contact": null,
    "studentCount": 5,
    "parentCount": 5
  },
  {
    "id": "adc0d116-4ac5-4296-8f1d-3371c46a7754",
    "name": "Hallstahammar",
    "municipality": "Hallstahammar",
    "coordinates": [59.6132041, 16.2294755],
    "contact": null,
    "studentCount": 2,
    "parentCount": 2
  },
  {
    "id": "6d58065b-7023-4d8b-b0ed-838edc099ce2",
    "name": "Sundbyberg",
    "municipality": "Sundbyberg",
    "coordinates": [59.369325, 17.9609133],
    "contact": null,
    "studentCount": 4,
    "parentCount": 4
  },
  {
    "id": "4e8ba678-b85d-4bd1-917c-e70466cd343e",
    "name": "Solna",
    "municipality": "Solna",
    "coordinates": [59.36887909999999, 18.0084334],
    "contact": null,
    "studentCount": 10,
    "parentCount": 7
  },
  {
    "id": "2990450c-0c43-4528-9c75-4b908174070c",
    "name": "Nykvarn",
    "municipality": "Nykvarn",
    "coordinates": [59.178177, 17.427816],
    "contact": null,
    "studentCount": 3,
    "parentCount": 2
  },
  {
    "id": "f618fd7f-0b12-4070-ac27-94d7106e59ae",
    "name": "Höör",
    "municipality": "Höör",
    "coordinates": [55.9348588, 13.5395904],
    "contact": null,
    "studentCount": 9,
    "parentCount": 4
  },
  {
    "id": "fa426cbf-d23a-4535-9e06-6fc4b749736f",
    "name": "Gotland",
    "municipality": "Gotland",
    "coordinates": [57.46841209999999, 18.4867447],
    "contact": null,
    "studentCount": 9,
    "parentCount": 7
  },
  {
    "id": "f3f070cd-6c6f-4f66-91eb-ce155649d500",
    "name": "Linköping",
    "municipality": "Linköping",
    "coordinates": [58.41080700000001, 15.6213727],
    "contact": null,
    "studentCount": 9,
    "parentCount": 7
  },
  {
    "id": "f7032bf0-0254-4b06-a61f-8c34c63a729f",
    "name": "Karlstad",
    "municipality": "Karlstad",
    "coordinates": [59.3783091, 13.4967921],
    "contact": null,
    "studentCount": 19,
    "parentCount": 16
  },
  {
    "id": "459a47ea-1153-474c-8c16-e93cce8c108e",
    "name": "Hörby",
    "municipality": "Hörby",
    "coordinates": [55.8508109, 13.6599486],
    "contact": null,
    "studentCount": 3,
    "parentCount": 2
  },
  {
    "id": "1fa82d20-31c6-4872-bd7d-06739939687a",
    "name": "Malmö Stad",
    "municipality": "Malmö Stad",
    "coordinates": [55.5859461, 12.9467319],
    "contact": null,
    "studentCount": 22,
    "parentCount": 17
  },
  {
    "id": "f723173e-f14f-4e40-a624-6cf747ab0669",
    "name": "Askersund",
    "municipality": "Askersund",
    "coordinates": [58.88942679999999, 14.9109867],
    "contact": null,
    "studentCount": 2,
    "parentCount": 1
  },
  {
    "id": "e194ddfd-5d7d-4197-a245-d6ced04c3f28",
    "name": "Lund",
    "municipality": "Lund",
    "coordinates": [55.7046601, 13.1910073],
    "contact": null,
    "studentCount": 12,
    "parentCount": 11
  },
  {
    "id": "f533fc96-1f7f-4b4f-b6ba-8f868598d9aa",
    "name": "Vara",
    "municipality": "Vara",
    "coordinates": [58.261781, 12.960194],
    "contact": null,
    "studentCount": 2,
    "parentCount": 1
  },
  {
    "id": "96c6f2fa-35f6-4786-a1a6-b2ef2df3fc9e",
    "name": "Sundsvall",
    "municipality": "Sundsvall",
    "coordinates": [62.390811, 17.306927],
    "contact": null,
    "studentCount": 4,
    "parentCount": 3
  },
  {
    "id": "4df8d3fa-8228-49e7-b772-1a7de6d9b373",
    "name": "Flen",
    "municipality": "Flen",
    "coordinates": [59.0579376, 16.5879122],
    "contact": null,
    "studentCount": 3,
    "parentCount": 2
  },
  {
    "id": "da9e2cf7-91c7-4ac6-8d75-4b19219903dc",
    "name": "Kalix",
    "municipality": "Kalix",
    "coordinates": [65.8552807, 23.143965],
    "contact": null,
    "studentCount": 1,
    "parentCount": 1
  },
  {
    "id": "dd21e130-e81c-4945-be98-08e7a079e53a",
    "name": "Nyköping",
    "municipality": "Nyköping",
    "coordinates": [58.75284389999999, 17.0091593],
    "contact": null,
    "studentCount": 6,
    "parentCount": 4
  },
  {
    "id": "caa9bbab-8713-4f86-83d0-163f21d39f7c",
    "name": "Mariestad",
    "municipality": "Mariestad",
    "coordinates": [58.7101119, 13.8213327],
    "contact": null,
    "studentCount": 1,
    "parentCount": 1
  },
  {
    "id": "3f172c9b-e319-4f89-a620-cfb89245893d",
    "name": "Jönköping",
    "municipality": "Jönköping",
    "coordinates": [57.78261370000001, 14.1617876],
    "contact": null,
    "studentCount": 5,
    "parentCount": 3
  },
  {
    "id": "aa866077-aa6c-46e6-a638-4b736e68c304",
    "name": "Falkenberg",
    "municipality": "Falkenberg",
    "coordinates": [56.90273329999999, 12.4888013],
    "contact": null,
    "studentCount": 2,
    "parentCount": 2
  },
  {
    "id": "4b69eacd-738d-4425-903e-7c1a56600c43",
    "name": "Helsingborg stad",
    "municipality": "Helsingborg stad",
    "coordinates": [56.0464674, 12.6945121],
    "contact": null,
    "studentCount": 8,
    "parentCount": 6
  },
  {
    "id": "0dafd19b-9554-4cd3-9d34-c0f5d65122b7",
    "name": "Norrköping",
    "municipality": "Norrköping",
    "coordinates": [58.587745, 16.192421],
    "contact": null,
    "studentCount": 4,
    "parentCount": 4
  },
  {
    "id": "1be7e9bc-98c3-4825-a1fa-deb5c6024560",
    "name": "Söderköping",
    "municipality": "Söderköping",
    "coordinates": [58.4759013, 16.3234307],
    "contact": null,
    "studentCount": 3,
    "parentCount": 2
  },
  {
    "id": "887cdce1-eb78-4c6a-8d2e-c5b9e57d84bb",
    "name": "Karlshamn",
    "municipality": "Karlshamn",
    "coordinates": [56.170303, 14.863073],
    "contact": null,
    "studentCount": 1,
    "parentCount": 1
  },
  {
    "id": "f899499a-c028-466f-8cd4-43055b843075",
    "name": "Östersund",
    "municipality": "Östersund",
    "coordinates": [63.1766832, 14.6360681],
    "contact": null,
    "studentCount": 12,
    "parentCount": 12
  },
  {
    "id": "d14794b3-eb67-4473-ae4a-7ff2d07b8e12",
    "name": "Vänersborg",
    "municipality": "Vänersborg",
    "coordinates": [58.3797283, 12.3248032],
    "contact": null,
    "studentCount": 1,
    "parentCount": 1
  },
  {
    "id": "23533262-0652-42ab-8145-39539d1fd89d",
    "name": "Värnamo",
    "municipality": "Värnamo",
    "coordinates": [57.1831605, 14.0478214],
    "contact": null,
    "studentCount": 7,
    "parentCount": 5
  },
  {
    "id": "6d736b8c-4f43-4b4d-a5b2-8e28353cd613",
    "name": "Varberg",
    "municipality": "Varberg",
    "coordinates": [57.107118, 12.2520907],
    "contact": null,
    "studentCount": 2,
    "parentCount": 2
  },
  {
    "id": "51d8b522-e4d0-42e9-9884-a04a44301a69",
    "name": "Staffanstorp",
    "municipality": "Staffanstorp",
    "coordinates": [55.641065, 13.212229],
    "contact": null,
    "studentCount": 2,
    "parentCount": 2
  },
  {
    "id": "520a51a7-4653-4e49-b573-11802d82f168",
    "name": "Örnsköldsvik",
    "municipality": "Örnsköldsvik",
    "coordinates": [63.29004740000001, 18.7166166],
    "contact": null,
    "studentCount": 1,
    "parentCount": 1
  },
  {
    "id": "9a9ba7d9-16b6-4539-867d-c0e7fe91e33f",
    "name": "Kristianstad",
    "municipality": "Kristianstad",
    "coordinates": [56.0293936, 14.1566778],
    "contact": null,
    "studentCount": 2,
    "parentCount": 2
  },
  {
    "id": "45754574-de76-434c-81ae-d2f1b3aef05d",
    "name": "Mellerud",
    "municipality": "Mellerud",
    "coordinates": [58.7025681, 12.4518424],
    "contact": null,
    "studentCount": 2,
    "parentCount": 1
  },
  {
    "id": "82b4c6dc-497d-4f54-88f2-f58f7dd29809",
    "name": "Salem",
    "municipality": "Salem",
    "coordinates": [59.20768, 17.7742216],
    "contact": null,
    "studentCount": 1,
    "parentCount": 1
  },
  {
    "id": "28467786-360f-4322-9717-b447e12b89d8",
    "name": "Lilla Edet",
    "municipality": "Lilla Edet",
    "coordinates": [58.132158, 12.1241336],
    "contact": null,
    "studentCount": 1,
    "parentCount": 1
  },
  {
    "id": "017f6485-f05d-4d97-b48a-05970949415b",
    "name": "Strömsund",
    "municipality": "Strömsund",
    "coordinates": [63.85366209999999, 15.5568691],
    "contact": null,
    "studentCount": 3,
    "parentCount": 2
  },
  {
    "id": "d67e9e14-f3aa-44d6-a9e7-08d623b85e49",
    "name": "Söderhamn",
    "municipality": "Söderhamn",
    "coordinates": [61.3055762, 17.0628102],
    "contact": null,
    "studentCount": 4,
    "parentCount": 2
  },
  {
    "id": "6cef11ff-66a5-48a0-93b3-21d7858a66c0",
    "name": "Ljusdal",
    "municipality": "Ljusdal",
    "coordinates": [61.8308392, 16.0817501],
    "contact": null,
    "studentCount": 3,
    "parentCount": 2
  },
  {
    "id": "3fdfde93-a4ea-46cd-9ca0-62c537dd87b8",
    "name": "Orust",
    "municipality": "Orust",
    "coordinates": [58.17830999999999, 11.65224],
    "contact": null,
    "studentCount": 2,
    "parentCount": 1
  },
  {
    "id": "b733a36a-88e3-4052-bb1c-d21f2ac5ef49",
    "name": "Mullsjö",
    "municipality": "Mullsjö",
    "coordinates": [57.9165989, 13.8773174],
    "contact": null,
    "studentCount": 4,
    "parentCount": 4
  },
  {
    "id": "6ffc0447-57a5-4ceb-9019-299b2e5c3224",
    "name": "Härjedalen",
    "municipality": "Härjedalen",
    "coordinates": [62.20095, 13.2447],
    "contact": null,
    "studentCount": 5,
    "parentCount": 3
  },
  {
    "id": "f280790a-ee06-4ad8-9d2f-0408f23786b0",
    "name": "Vaxholm",
    "municipality": "Vaxholm",
    "coordinates": [59.40329679999999, 18.3263804],
    "contact": null,
    "studentCount": 7,
    "parentCount": 5
  },
  {
    "id": "3f7cf87c-dfe5-4796-af07-e88b8ded2703",
    "name": "Danderyd",
    "municipality": "Danderyd",
    "coordinates": [59.40131, 18.04851],
    "contact": null,
    "studentCount": 37,
    "parentCount": 21
  },
  {
    "id": "749b37a6-2bce-4ab1-983d-5b79a538d171",
    "name": "Smedjebacken",
    "municipality": "Smedjebacken",
    "coordinates": [60.1431933, 15.4159915],
    "contact": null,
    "studentCount": 4,
    "parentCount": 4
  },
  {
    "id": "4db78346-cd33-487e-a965-da3626ed7257",
    "name": "Boden",
    "municipality": "Boden",
    "coordinates": [65.8251188, 21.6887028],
    "contact": null,
    "studentCount": 4,
    "parentCount": 4
  },
  {
    "id": "4ffdc5b8-a320-4b77-9bc1-1ad933264e56",
    "name": "Lysekil",
    "municipality": "Lysekil",
    "coordinates": [58.27557299999999, 11.435558],
    "contact": null,
    "studentCount": 1,
    "parentCount": 1
  },
  {
    "id": "3f707986-a153-4293-8905-5fac525e5e94",
    "name": "Skara",
    "municipality": "Skara",
    "coordinates": [58.3860128, 13.4393282],
    "contact": null,
    "studentCount": 1,
    "parentCount": 1
  },
  {
    "id": "bf34b875-4663-4fb9-b20a-c9f84f583879",
    "name": "Ljungby",
    "municipality": "Ljungby",
    "coordinates": [56.8338774, 13.9410417],
    "contact": null,
    "studentCount": 1,
    "parentCount": 1
  },
  {
    "id": "e588aef6-6583-4143-bf69-ffad52c1832a",
    "name": "Heby",
    "municipality": "Heby",
    "coordinates": [59.93562610000001, 16.8690109],
    "contact": null,
    "studentCount": 4,
    "parentCount": 2
  },
  {
    "id": "80307f28-4e74-482c-934d-429a4081128e",
    "name": "Tidaholm",
    "municipality": "Tidaholm",
    "coordinates": [58.1817692, 13.9594737],
    "contact": null,
    "studentCount": 1,
    "parentCount": 1
  },
  {
    "id": "aab76fc0-939e-48a6-bb4f-5ece7096028f",
    "name": "Öckerö",
    "municipality": "Öckerö",
    "coordinates": [57.711741, 11.6487886],
    "contact": null,
    "studentCount": 3,
    "parentCount": 3
  },
  {
    "id": "cfd7dbc9-927e-4c40-8f08-2c99f07aca5a",
    "name": "Västerås",
    "municipality": "Västerås",
    "coordinates": [59.60990049999999, 16.5448091],
    "contact": null,
    "studentCount": 1,
    "parentCount": 1
  },
  {
    "id": "72aa24cf-5b40-440b-aebc-a96dbf488037",
    "name": "Grums",
    "municipality": "Grums",
    "coordinates": [59.35317870000001, 13.1117319],
    "contact": null,
    "studentCount": 2,
    "parentCount": 1
  },
  {
    "id": "ef30cf9b-60d7-46df-a768-deea6bb71452",
    "name": "Östhammar",
    "municipality": "Östhammar",
    "coordinates": [60.2593019, 18.3653411],
    "contact": null,
    "studentCount": 1,
    "parentCount": 1
  },
  {
    "id": "5e4b42cf-6ca4-4f72-802a-37a4c858446d",
    "name": "Berg",
    "municipality": "Berg",
    "coordinates": [62.7724812, 14.1698666],
    "contact": null,
    "studentCount": 1,
    "parentCount": 1
  },
  {
    "id": "41e5561f-21a6-4e32-b255-449eff2dffb5",
    "name": "Östra Göinge",
    "municipality": "Östra Göinge",
    "coordinates": [56.26821, 14.15309],
    "contact": null,
    "studentCount": 1,
    "parentCount": 1
  },
  {
    "id": "697712c2-78c5-48df-92d7-cdd6500ddeff",
    "name": "Leksand",
    "municipality": "Leksand",
    "coordinates": [60.7303082, 14.9998922],
    "contact": null,
    "studentCount": 1,
    "parentCount": 1
  },
  {
    "id": "061a8f97-b809-43c5-a2c0-42ee2fddbc49",
    "name": "Halmstad",
    "municipality": "Halmstad",
    "coordinates": [56.6743748, 12.8577884],
    "contact": null,
    "studentCount": 2,
    "parentCount": 2
  },
  {
    "id": "2472e449-7d69-4b30-8a03-96760fd7f138",
    "name": "Kristinehamn",
    "municipality": "Kristinehamn",
    "coordinates": [59.3100677, 14.1089192],
    "contact": null,
    "studentCount": 1,
    "parentCount": 1
  },
  {
    "id": "e787b3f6-04d2-4ad1-9edd-f4d14004214d",
    "name": "Olofström",
    "municipality": "Olofström",
    "coordinates": [56.277708, 14.530938],
    "contact": null,
    "studentCount": 2,
    "parentCount": 1
  },
  {
    "id": "ac486f57-6dbd-4961-b1d6-f7babfd4f422",
    "name": "Nora",
    "municipality": "Nora",
    "coordinates": [59.51920639999999, 15.0378667],
    "contact": null,
    "studentCount": 2,
    "parentCount": 1
  },
  {
    "id": "05fcd70d-fc21-445b-974e-d2dae2890f8c",
    "name": "Nynäshamn",
    "municipality": "Nynäshamn",
    "coordinates": [58.90292600000001, 17.9465289],
    "contact": null,
    "studentCount": 9,
    "parentCount": 6
  },
  {
    "id": "7bcbb760-4ba7-49b3-b6cd-b96387afea90",
    "name": "Ystad",
    "municipality": "Ystad",
    "coordinates": [55.4295051, 13.8200308],
    "contact": null,
    "studentCount": 1,
    "parentCount": 1
  },
  {
    "id": "4d132efd-dc50-4b33-a625-0644aa84673b",
    "name": "Ljusnarsberg",
    "municipality": "Ljusnarsberg",
    "coordinates": [59.8774473, 14.9988486],
    "contact": null,
    "studentCount": 1,
    "parentCount": 1
  },
  {
    "id": "5e860e89-2063-4829-a67d-d73ec915e33f",
    "name": "Stenungsund",
    "municipality": "Stenungsund",
    "coordinates": [58.0678388, 11.8294346],
    "contact": null,
    "studentCount": 1,
    "parentCount": 1
  },
  {
    "id": "76922d0c-d4d6-4ad4-87f9-889449403857",
    "name": "Katrineholm",
    "municipality": "Katrineholm",
    "coordinates": [58.99555109999999, 16.2054756],
    "contact": null,
    "studentCount": 2,
    "parentCount": 1
  },
  {
    "id": "3f7fee76-71ab-4b97-aabb-ffdd545c6266",
    "name": "Färgelanda",
    "municipality": "Färgelanda",
    "coordinates": [58.567559, 11.994926],
    "contact": null,
    "studentCount": 3,
    "parentCount": 1
  },
  {
    "id": "4bf71090-4b7d-431d-8c39-fb9679bb3240",
    "name": "Vaggeryd",
    "municipality": "Vaggeryd",
    "coordinates": [57.4989621, 14.1486297],
    "contact": null,
    "studentCount": 2,
    "parentCount": 1
  },
  {
    "id": "dca9348d-26c8-4624-babc-4ebf1c7d69d2",
    "name": "Kungälv",
    "municipality": "Kungälv",
    "coordinates": [57.86975400000001, 11.9740317],
    "contact": null,
    "studentCount": 2,
    "parentCount": 1
  },
  {
    "id": "fdaec641-2ab0-4f29-a735-787744ff5898",
    "name": "Norberg",
    "municipality": "Norberg",
    "coordinates": [60.06504200000001, 15.923796],
    "contact": null,
    "studentCount": 1,
    "parentCount": 1
  },
  {
    "id": "07009139-7ce6-43bc-afaa-c0ef98525c57",
    "name": "Simrishamn",
    "municipality": "Simrishamn",
    "coordinates": [55.5573959, 14.3489651],
    "contact": null,
    "studentCount": 2,
    "parentCount": 1
  }
]
