[
  {
    "id": "bf2fdf93-2e3b-4c57-9d03-0977ccfcd2db",
    "name": "Botkyrka",
    "municipality": "Botkyrka",
    "coordinates": [59.2459411, 17.8408583],
    "contact": null,
    "studentCount": 3,
    "parentCount": 2
  },
  {
    "id": "c89b2795-7bf3-44e9-88cd-781c321bbbef",
    "name": "Stockholm stad",
    "municipality": "Stockholm stad",
    "coordinates": [59.3327036, 18.0656255],
    "contact": null,
    "studentCount": 842,
    "parentCount": 607
  },
  {
    "id": "a54f3934-9b0f-480b-9147-e1a10b46fe0c",
    "name": "Täby",
    "municipality": "Täby",
    "coordinates": [59.4419, 18.0703299],
    "contact": null,
    "studentCount": 93,
    "parentCount": 63
  },
  {
    "id": "c30ce3f1-210f-47b4-a3df-ffd622f9a32b",
    "name": "Östersund",
    "municipality": "Östersund",
    "coordinates": [63.1766832, 14.6360681],
    "contact": null,
    "studentCount": 43,
    "parentCount": 30
  },
  {
    "id": "7c030bc6-acb7-4091-bfd5-d1104d31c9c6",
    "name": "Falun",
    "municipality": "Falun",
    "coordinates": [60.60646000000001, 15.6355],
    "contact": null,
    "studentCount": 71,
    "parentCount": 46
  },
  {
    "id": "5c992dc2-9167-4e03-837e-8e2dcc8e833b",
    "name": "Åre",
    "municipality": "Åre",
    "coordinates": [63.4019, 13.0819],
    "contact": null,
    "studentCount": 22,
    "parentCount": 13
  },
  {
    "id": "aa9f43f6-2dbf-44c7-b6a6-63e53e92f88c",
    "name": "Örnsköldsvik",
    "municipality": "Örnsköldsvik",
    "coordinates": [63.29004740000001, 18.7166166],
    "contact": null,
    "studentCount": 21,
    "parentCount": 13
  },
  {
    "id": "6707be2f-ce12-4c1c-b00f-a23fdf2f7e6e",
    "name": "Mark",
    "municipality": "Mark",
    "coordinates": [57.4253176, 12.5695216],
    "contact": null,
    "studentCount": 10,
    "parentCount": 6
  },
  {
    "id": "6b672d74-854a-4853-8c0a-b7196902b282",
    "name": "Göteborg stad",
    "municipality": "Göteborg stad",
    "coordinates": [57.70887, 11.97456],
    "contact": null,
    "studentCount": 157,
    "parentCount": 106
  },
  {
    "id": "7d88c1b8-897a-41ef-ba69-41900a9e7b53",
    "name": "Huddinge",
    "municipality": "Huddinge",
    "coordinates": [59.23633, 17.9821561],
    "contact": null,
    "studentCount": 42,
    "parentCount": 31
  },
  {
    "id": "4cd11d0d-c56d-463e-a3a8-1d69611990a1",
    "name": "Danderyd",
    "municipality": "Danderyd",
    "coordinates": [59.40131, 18.04851],
    "contact": null,
    "studentCount": 88,
    "parentCount": 55
  },
  {
    "id": "4b8e883e-4583-4b77-b629-5fbd244d8d51",
    "name": "Uppsala",
    "municipality": "Uppsala",
    "coordinates": [59.85856380000001, 17.6389267],
    "contact": null,
    "studentCount": 92,
    "parentCount": 62
  },
  {
    "id": "7d494c24-ceed-4f50-ae04-047fccf48b2c",
    "name": "Österåker",
    "municipality": "Österåker",
    "coordinates": [59.481773, 18.2979379],
    "contact": null,
    "studentCount": 98,
    "parentCount": 65
  },
  {
    "id": "c3452bd5-732a-4fa8-a1f5-756a81f3f5de",
    "name": "Simrishamn",
    "municipality": "Simrishamn",
    "coordinates": [55.5573959, 14.3489651],
    "contact": null,
    "studentCount": 25,
    "parentCount": 18
  },
  {
    "id": "f5ebb6d8-e164-49e2-9257-7eb70b3487cf",
    "name": "Växjö",
    "municipality": "Växjö",
    "coordinates": [56.8790044, 14.8058522],
    "contact": null,
    "studentCount": 8,
    "parentCount": 5
  },
  {
    "id": "0ddb5b98-5685-4695-8bb2-9a77436a4973",
    "name": "Lidingö",
    "municipality": "Lidingö",
    "coordinates": [59.36295999999999, 18.1468],
    "contact": null,
    "studentCount": 198,
    "parentCount": 136
  },
  {
    "id": "5e86f4a9-5442-4dd7-90f8-c595204c5d18",
    "name": "Malmö stad",
    "municipality": "Malmö stad",
    "coordinates": [55.5859461, 12.9467319],
    "contact": null,
    "studentCount": 50,
    "parentCount": 38
  },
  {
    "id": "2feeda29-8608-41d8-b840-5ee4650650e9",
    "name": "Nacka",
    "municipality": "Nacka",
    "coordinates": [59.30531999999999, 18.2475],
    "contact": null,
    "studentCount": 167,
    "parentCount": 123
  },
  {
    "id": "24f0158d-c803-479c-a822-bfabb8007866",
    "name": "Mölndals stad",
    "municipality": "Mölndals stad",
    "coordinates": [57.5981734, 12.1015032],
    "contact": null,
    "studentCount": 18,
    "parentCount": 12
  },
  {
    "id": "72d2bbd8-5bb9-4159-b13a-18f2a1446292",
    "name": "Hällefors",
    "municipality": "Hällefors",
    "coordinates": [59.783688, 14.5225692],
    "contact": null,
    "studentCount": 1,
    "parentCount": 1
  },
  {
    "id": "bc1e1a85-e157-4b59-b55f-cc47662e133d",
    "name": "Alingsås",
    "municipality": "Alingsås",
    "coordinates": [57.9300205, 12.5362113],
    "contact": null,
    "studentCount": 53,
    "parentCount": 30
  },
  {
    "id": "e8f4f490-e60c-4bc5-8abf-9892ecff7524",
    "name": "Rättvik",
    "municipality": "Rättvik",
    "coordinates": [60.88762479999999, 15.123341],
    "contact": null,
    "studentCount": 4,
    "parentCount": 3
  },
  {
    "id": "f5078c33-8c86-423b-bd96-c2816e541afc",
    "name": "Hässleholm",
    "municipality": "Hässleholm",
    "coordinates": [56.15891449999999, 13.7667655],
    "contact": null,
    "studentCount": 12,
    "parentCount": 9
  },
  {
    "id": "c2dae62f-211c-4bf2-b796-bd7417185ecb",
    "name": "Hudiksvall",
    "municipality": "Hudiksvall",
    "coordinates": [61.7273909, 17.107401],
    "contact": null,
    "studentCount": 4,
    "parentCount": 3
  },
  {
    "id": "8c1e1edd-7036-4acd-b2ea-9c7f3479eb78",
    "name": "Ängelholm",
    "municipality": "Ängelholm",
    "coordinates": [56.245748, 12.863881],
    "contact": null,
    "studentCount": 7,
    "parentCount": 5
  },
  {
    "id": "94ab77ca-e8e1-47cc-894c-710ee2bdad8b",
    "name": "Skövde",
    "municipality": "Skövde",
    "coordinates": [58.3902782, 13.8461208],
    "contact": null,
    "studentCount": 14,
    "parentCount": 11
  },
  {
    "id": "893d87f6-3c51-4ad8-bc04-6d3a0609dc7a",
    "name": "Kristianstad",
    "municipality": "Kristianstad",
    "coordinates": [56.0293936, 14.1566778],
    "contact": null,
    "studentCount": 10,
    "parentCount": 7
  },
  {
    "id": "ce114cb6-bf98-40d4-8177-c972f507dc8a",
    "name": "Varberg",
    "municipality": "Varberg",
    "coordinates": [57.107118, 12.2520907],
    "contact": null,
    "studentCount": 16,
    "parentCount": 10
  },
  {
    "id": "ea030439-9920-48eb-9a6f-13346a26e49d",
    "name": "Älvdalen",
    "municipality": "Älvdalen",
    "coordinates": [61.22730600000001, 14.0419871],
    "contact": null,
    "studentCount": 1,
    "parentCount": 1
  },
  {
    "id": "cfac93ad-cf79-41a2-8298-c98e86f840a2",
    "name": "Tjörn",
    "municipality": "Tjörn",
    "coordinates": [58.00971000000001, 11.63221],
    "contact": null,
    "studentCount": 11,
    "parentCount": 9
  },
  {
    "id": "287bd277-1467-46dd-8ed8-3e76fe53ac32",
    "name": "Östhammar",
    "municipality": "Östhammar",
    "coordinates": [60.2593019, 18.3653411],
    "contact": null,
    "studentCount": 2,
    "parentCount": 2
  },
  {
    "id": "916f4508-1a98-428e-bb78-b9a8811454cb",
    "name": "Norrköping",
    "municipality": "Norrköping",
    "coordinates": [58.587745, 16.192421],
    "contact": null,
    "studentCount": 18,
    "parentCount": 14
  },
  {
    "id": "884435a9-2cca-4437-a238-91c4e37996ce",
    "name": "Ljusdal",
    "municipality": "Ljusdal",
    "coordinates": [61.8308392, 16.0817501],
    "contact": null,
    "studentCount": 7,
    "parentCount": 5
  },
  {
    "id": "e668ab3e-fd2f-456c-b99f-d7c47611148f",
    "name": "Luleå",
    "municipality": "Luleå",
    "coordinates": [65.584819, 22.1567026],
    "contact": null,
    "studentCount": 33,
    "parentCount": 23
  },
  {
    "id": "5b942e4e-4993-433e-8c38-c296eba7887e",
    "name": "Sundbyberg",
    "municipality": "Sundbyberg",
    "coordinates": [59.369325, 17.9609133],
    "contact": null,
    "studentCount": 20,
    "parentCount": 17
  },
  {
    "id": "7ba5dee9-d7fd-4c3e-aeb3-56acc3ddaaf3",
    "name": "Knivsta",
    "municipality": "Knivsta",
    "coordinates": [59.7261195, 17.7920364],
    "contact": null,
    "studentCount": 5,
    "parentCount": 4
  },
  {
    "id": "c34ac662-fd05-4ab5-8dc7-caf14d6407a8",
    "name": "Ulricehamn",
    "municipality": "Ulricehamn",
    "coordinates": [57.7947889, 13.4205162],
    "contact": null,
    "studentCount": 5,
    "parentCount": 3
  },
  {
    "id": "cf2a60a1-d913-485c-b002-5cd8ddcdaeb6",
    "name": "Höör",
    "municipality": "Höör",
    "coordinates": [55.9348588, 13.5395904],
    "contact": null,
    "studentCount": 16,
    "parentCount": 7
  },
  {
    "id": "b6b091a1-78d7-4e09-afe9-b03400e53cf1",
    "name": "Värmdö",
    "municipality": "Värmdö",
    "coordinates": [59.3163663, 18.4465719],
    "contact": null,
    "studentCount": 60,
    "parentCount": 40
  },
  {
    "id": "a1000660-86a9-4c09-8eec-e19c2edbf9fb",
    "name": "Järfälla",
    "municipality": "Järfälla",
    "coordinates": [59.4431024, 17.8336732],
    "contact": null,
    "studentCount": 23,
    "parentCount": 12
  },
  {
    "id": "4db17466-159e-42d2-bb76-560d4a2f7f9b",
    "name": "Motala",
    "municipality": "Motala",
    "coordinates": [58.5380335, 15.0470936],
    "contact": null,
    "studentCount": 3,
    "parentCount": 3
  },
  {
    "id": "9db06dce-92d7-4313-9fab-d12882ec604c",
    "name": "Kungsbacka",
    "municipality": "Kungsbacka",
    "coordinates": [57.48749189999999, 12.0761927],
    "contact": null,
    "studentCount": 40,
    "parentCount": 29
  },
  {
    "id": "dbaf8e1c-1c2e-4e51-aa0e-1661366d1a77",
    "name": "Lund",
    "municipality": "Lund",
    "coordinates": [55.7046601, 13.1910073],
    "contact": null,
    "studentCount": 80,
    "parentCount": 56
  },
  {
    "id": "d1eb939c-5807-4bd5-b03e-599c3f4db45a",
    "name": "Trelleborg",
    "municipality": "Trelleborg",
    "coordinates": [55.3762427, 13.1574231],
    "contact": null,
    "studentCount": 2,
    "parentCount": 1
  },
  {
    "id": "2f39425b-db23-4dc8-bb1e-0ef5bf4f880e",
    "name": "Vänersborg",
    "municipality": "Vänersborg",
    "coordinates": [58.3797283, 12.3248032],
    "contact": null,
    "studentCount": 14,
    "parentCount": 10
  },
  {
    "id": "66cb31e0-94e0-4334-a2d3-54284938d944",
    "name": "Ovanåker",
    "municipality": "Ovanåker",
    "coordinates": [61.36662239999999, 15.8965623],
    "contact": null,
    "studentCount": 5,
    "parentCount": 3
  },
  {
    "id": "bb9fcfc2-d64b-4215-83fe-81e432930baf",
    "name": "Sjöbo",
    "municipality": "Sjöbo",
    "coordinates": [55.634822, 13.70337],
    "contact": null,
    "studentCount": 6,
    "parentCount": 4
  },
  {
    "id": "c64af887-f44d-48b6-afbd-f6cb13bb4356",
    "name": "Umeå",
    "municipality": "Umeå",
    "coordinates": [63.8258471, 20.2630354],
    "contact": null,
    "studentCount": 31,
    "parentCount": 20
  },
  {
    "id": "f217d4a4-e8b7-4384-9972-23fcbaa7dcf8",
    "name": "Staffanstorp",
    "municipality": "Staffanstorp",
    "coordinates": [55.641065, 13.212229],
    "contact": null,
    "studentCount": 22,
    "parentCount": 16
  },
  {
    "id": "cacd50c3-2a67-4b47-8f75-723679f784b3",
    "name": "Upplands-Bro",
    "municipality": "Upplands-Bro",
    "coordinates": [59.5412, 17.67157],
    "contact": null,
    "studentCount": 12,
    "parentCount": 6
  },
  {
    "id": "eed8dfa4-1891-4b7f-97df-1210a2dc1675",
    "name": "Kungälv",
    "municipality": "Kungälv",
    "coordinates": [57.86975400000001, 11.9740317],
    "contact": null,
    "studentCount": 13,
    "parentCount": 7
  },
  {
    "id": "ddf1e326-d298-4106-8cd9-740a0b271381",
    "name": "Haninge",
    "municipality": "Haninge",
    "coordinates": [59.17554999999999, 18.1413702],
    "contact": null,
    "studentCount": 20,
    "parentCount": 12
  },
  {
    "id": "a1f603eb-dbef-4ea9-a8d5-9135cc97ebdb",
    "name": "Jönköping",
    "municipality": "Jönköping",
    "coordinates": [57.78261370000001, 14.1617876],
    "contact": null,
    "studentCount": 20,
    "parentCount": 12
  },
  {
    "id": "4942fafa-e6cb-42c6-9e04-46d1416852f8",
    "name": "Eslöv",
    "municipality": "Eslöv",
    "coordinates": [55.8391198, 13.3033914],
    "contact": null,
    "studentCount": 5,
    "parentCount": 4
  },
  {
    "id": "299e31c6-adde-4380-aadf-92c65ca30ef0",
    "name": "Västerås",
    "municipality": "Västerås",
    "coordinates": [59.60990049999999, 16.5448091],
    "contact": null,
    "studentCount": 18,
    "parentCount": 12
  },
  {
    "id": "556ae8c5-ce61-4efb-b58d-76e82965df4a",
    "name": "Solna stad",
    "municipality": "Solna stad",
    "coordinates": [59.36419679999999, 18.0124231],
    "contact": null,
    "studentCount": 22,
    "parentCount": 18
  },
  {
    "id": "099a82e8-8337-4ffa-9888-25a29148bd85",
    "name": "Lomma",
    "municipality": "Lomma",
    "coordinates": [55.6753618, 13.0714404],
    "contact": null,
    "studentCount": 3,
    "parentCount": 3
  },
  {
    "id": "38c0a856-9a9d-4c4d-8607-938b465f4bd0",
    "name": "Orsa",
    "municipality": "Orsa",
    "coordinates": [61.11581570000001, 14.6303809],
    "contact": null,
    "studentCount": 9,
    "parentCount": 7
  },
  {
    "id": "6fd4ed65-b324-4c32-a1f3-60bb807f7fd8",
    "name": "Halmstad",
    "municipality": "Halmstad",
    "coordinates": [56.6743748, 12.8577884],
    "contact": null,
    "studentCount": 13,
    "parentCount": 9
  },
  {
    "id": "87f2d91f-9a6b-4482-96f7-3af0ea597164",
    "name": "Salem",
    "municipality": "Salem",
    "coordinates": [59.20768, 17.7742216],
    "contact": null,
    "studentCount": 32,
    "parentCount": 18
  },
  {
    "id": "fe88ddd8-a541-4deb-b0ad-62788615294c",
    "name": "Enköping",
    "municipality": "Enköping",
    "coordinates": [59.63569090000001, 17.0778228],
    "contact": null,
    "studentCount": 9,
    "parentCount": 6
  },
  {
    "id": "09924070-0e93-410b-ad6b-cca30ff81c05",
    "name": "Eskilstuna",
    "municipality": "Eskilstuna",
    "coordinates": [59.37124859999999, 16.5098045],
    "contact": null,
    "studentCount": 8,
    "parentCount": 7
  },
  {
    "id": "4f715a96-f321-4fe8-8f99-4e5313453024",
    "name": "Borås stad",
    "municipality": "Borås stad",
    "coordinates": [57.72103500000001, 12.939819],
    "contact": null,
    "studentCount": 10,
    "parentCount": 8
  },
  {
    "id": "046d8ca6-f11a-4bdf-ba9e-bc72811de027",
    "name": "Gävle",
    "municipality": "Gävle",
    "coordinates": [60.6748796, 17.1412726],
    "contact": null,
    "studentCount": 14,
    "parentCount": 9
  },
  {
    "id": "c8428863-b34a-427d-b46d-c4edef5d1ae5",
    "name": "Tranås",
    "municipality": "Tranås",
    "coordinates": [58.035518, 14.975696],
    "contact": null,
    "studentCount": 6,
    "parentCount": 3
  },
  {
    "id": "a6ef9245-cd93-4c14-9911-4f9a52bc5826",
    "name": "Piteå",
    "municipality": "Piteå",
    "coordinates": [65.316698, 21.4800364],
    "contact": null,
    "studentCount": 7,
    "parentCount": 6
  },
  {
    "id": "5c3d080e-99a9-4e9f-80f3-cf9c2423f090",
    "name": "Örebro",
    "municipality": "Örebro",
    "coordinates": [59.2752626, 15.2134105],
    "contact": null,
    "studentCount": 29,
    "parentCount": 18
  },
  {
    "id": "27768f8e-a3e8-4c4e-9c65-2828bfba4dd4",
    "name": "Habo",
    "municipality": "Habo",
    "coordinates": [57.9093623, 14.0745539],
    "contact": null,
    "studentCount": 3,
    "parentCount": 2
  },
  {
    "id": "6d45f12c-997b-4d66-91e8-3fc56fa8ceb7",
    "name": "Töreboda",
    "municipality": "Töreboda",
    "coordinates": [58.7043445, 14.1260717],
    "contact": null,
    "studentCount": 4,
    "parentCount": 2
  },
  {
    "id": "8d59c0dd-dc88-426b-abe9-5ce848b3a43d",
    "name": "Mörbylånga",
    "municipality": "Mörbylånga",
    "coordinates": [56.5241245, 16.3884109],
    "contact": null,
    "studentCount": 2,
    "parentCount": 2
  },
  {
    "id": "87028eaf-10c9-44d9-8fbf-218be12ab494",
    "name": "Härryda",
    "municipality": "Härryda",
    "coordinates": [57.69139449999999, 12.2826656],
    "contact": null,
    "studentCount": 6,
    "parentCount": 5
  },
  {
    "id": "dd7a9367-e9ab-4335-8818-6add5f13481a",
    "name": "Sollentuna",
    "municipality": "Sollentuna",
    "coordinates": [59.43049730000001, 17.950916],
    "contact": null,
    "studentCount": 94,
    "parentCount": 62
  },
  {
    "id": "52e5418a-3708-4271-aa26-13f043900b6b",
    "name": "Vellinge",
    "municipality": "Vellinge",
    "coordinates": [55.47089279999999, 13.0199899],
    "contact": null,
    "studentCount": 29,
    "parentCount": 21
  },
  {
    "id": "f162a6ee-b432-4945-801d-28be020fe69e",
    "name": "Gällivare",
    "municipality": "Gällivare",
    "coordinates": [67.1379, 20.6593618],
    "contact": null,
    "studentCount": 2,
    "parentCount": 1
  },
  {
    "id": "a1442c27-8144-4e1c-819a-bca846133c66",
    "name": "Upplands Väsby",
    "municipality": "Upplands Väsby",
    "coordinates": [59.51961, 17.92834],
    "contact": null,
    "studentCount": 16,
    "parentCount": 10
  },
  {
    "id": "986f9286-b465-4bf2-9301-38f9cf4230a6",
    "name": "Strängnäs",
    "municipality": "Strängnäs",
    "coordinates": [59.37745229999999, 17.0321193],
    "contact": null,
    "studentCount": 42,
    "parentCount": 28
  },
  {
    "id": "fb28e006-7e8a-418e-bdc7-e07b17aca078",
    "name": "Ludvika",
    "municipality": "Ludvika",
    "coordinates": [60.152358, 15.191639],
    "contact": null,
    "studentCount": 3,
    "parentCount": 3
  },
  {
    "id": "2c2ce4ad-0fe0-4ff0-bb37-9e7c66260e5d",
    "name": "Helsingborg stad",
    "municipality": "Helsingborg stad",
    "coordinates": [56.0464674, 12.6945121],
    "contact": null,
    "studentCount": 44,
    "parentCount": 30
  },
  {
    "id": "75efb528-3300-4ace-a058-f1ddec3f947a",
    "name": "Tyresö",
    "municipality": "Tyresö",
    "coordinates": [59.2425954, 18.2833919],
    "contact": null,
    "studentCount": 32,
    "parentCount": 20
  },
  {
    "id": "4b18ae07-0412-477c-94d9-4e99b95fd4fc",
    "name": "Norrtälje",
    "municipality": "Norrtälje",
    "coordinates": [59.7595841, 18.7013584],
    "contact": null,
    "studentCount": 16,
    "parentCount": 8
  },
  {
    "id": "6a81ac61-c49f-443b-a419-149fcae83510",
    "name": "Ystad",
    "municipality": "Ystad",
    "coordinates": [55.4295051, 13.8200308],
    "contact": null,
    "studentCount": 4,
    "parentCount": 3
  },
  {
    "id": "424feab8-0fe1-4dca-b782-cbd8604b39f5",
    "name": "Skellefteå",
    "municipality": "Skellefteå",
    "coordinates": [64.750244, 20.950917],
    "contact": null,
    "studentCount": 11,
    "parentCount": 9
  },
  {
    "id": "512228b3-61b3-41b2-9531-6a851746e677",
    "name": "Region Gotland",
    "municipality": "Region Gotland",
    "coordinates": [57.531291, 18.6901396],
    "contact": null,
    "studentCount": 6,
    "parentCount": 4
  },
  {
    "id": "996b7d66-4a20-4068-a338-7c8f1852af1f",
    "name": "Kävlinge",
    "municipality": "Kävlinge",
    "coordinates": [55.7939999, 13.1104293],
    "contact": null,
    "studentCount": 14,
    "parentCount": 9
  },
  {
    "id": "27cd94e1-83d6-423f-a647-8648ff970aae",
    "name": "Vallentuna",
    "municipality": "Vallentuna",
    "coordinates": [59.53569999999999, 18.078017],
    "contact": null,
    "studentCount": 21,
    "parentCount": 17
  },
  {
    "id": "0bb9fce6-bcc9-4e50-9fdc-9c141f780607",
    "name": "Burlöv",
    "municipality": "Burlöv",
    "coordinates": [55.633333, 13.1],
    "contact": null,
    "studentCount": 8,
    "parentCount": 3
  },
  {
    "id": "31210232-b634-4814-a1dc-cce016ed2119",
    "name": "Mora",
    "municipality": "Mora",
    "coordinates": [61.004878, 14.537003],
    "contact": null,
    "studentCount": 5,
    "parentCount": 4
  },
  {
    "id": "236bbe7d-ab79-40ed-a88d-b9d31f09cea2",
    "name": "Sandviken",
    "municipality": "Sandviken",
    "coordinates": [60.621607, 16.775918],
    "contact": null,
    "studentCount": 3,
    "parentCount": 2
  },
  {
    "id": "debb2e98-0200-45b3-829d-719951f4724e",
    "name": "Vansbro",
    "municipality": "Vansbro",
    "coordinates": [60.5099434, 14.2253417],
    "contact": null,
    "studentCount": 1,
    "parentCount": 1
  },
  {
    "id": "d7314915-71c4-4983-9cb9-1211f5d27e3e",
    "name": "Sigtuna",
    "municipality": "Sigtuna",
    "coordinates": [59.6191463, 17.7234191],
    "contact": null,
    "studentCount": 9,
    "parentCount": 7
  },
  {
    "id": "e03ab577-2e6e-418e-81fe-ef0628b3014a",
    "name": "Lerum",
    "municipality": "Lerum",
    "coordinates": [57.7694839, 12.2688197],
    "contact": null,
    "studentCount": 39,
    "parentCount": 29
  },
  {
    "id": "022c5ce9-ea49-4645-9f21-65a8f1c0a87b",
    "name": "Nyköping",
    "municipality": "Nyköping",
    "coordinates": [58.75284389999999, 17.0091593],
    "contact": null,
    "studentCount": 15,
    "parentCount": 11
  },
  {
    "id": "a17ef33e-d659-4970-901d-94c43c650cca",
    "name": "Linköping",
    "municipality": "Linköping",
    "coordinates": [58.41080700000001, 15.6213727],
    "contact": null,
    "studentCount": 31,
    "parentCount": 20
  },
  {
    "id": "92dec1d8-95a4-4bb8-8531-76c28b8ad30c",
    "name": "Södertälje",
    "municipality": "Södertälje",
    "coordinates": [59.197762, 17.6201942],
    "contact": null,
    "studentCount": 24,
    "parentCount": 18
  },
  {
    "id": "869d5379-5956-40be-b724-f657a38c785f",
    "name": "Kumla",
    "municipality": "Kumla",
    "coordinates": [59.12653590000001, 15.1401053],
    "contact": null,
    "studentCount": 6,
    "parentCount": 3
  },
  {
    "id": "3bf8ab8f-ee3c-477b-b378-263b9e2b4e25",
    "name": "Leksand",
    "municipality": "Leksand",
    "coordinates": [60.7303082, 14.9998922],
    "contact": null,
    "studentCount": 14,
    "parentCount": 9
  },
  {
    "id": "3bea1524-1fc5-4c99-816f-429c2bd627bb",
    "name": "Torsby",
    "municipality": "Torsby",
    "coordinates": [60.14090719999999, 13.0102132],
    "contact": null,
    "studentCount": 1,
    "parentCount": 1
  },
  {
    "id": "b843cb36-5102-4de5-9e37-5e1755411394",
    "name": "Trollhättans stad",
    "municipality": "Trollhättans stad",
    "coordinates": [58.282653, 12.2893687],
    "contact": null,
    "studentCount": 7,
    "parentCount": 4
  },
  {
    "id": "63628dab-26e4-40e8-8eb7-94d03e6ff3ad",
    "name": "Kils",
    "municipality": "Kils",
    "coordinates": [59.5883244, 13.2368047],
    "contact": null,
    "studentCount": 2,
    "parentCount": 1
  },
  {
    "id": "99b4b600-fb76-4816-b669-66fba584bdcd",
    "name": "Hallsberg",
    "municipality": "Hallsberg",
    "coordinates": [59.0665316, 15.10229],
    "contact": null,
    "studentCount": 2,
    "parentCount": 1
  },
  {
    "id": "d4692372-25fa-418c-8f09-141f9c224d47",
    "name": "Forshaga",
    "municipality": "Forshaga",
    "coordinates": [59.52976049999999, 13.4860836],
    "contact": null,
    "studentCount": 1,
    "parentCount": 1
  },
  {
    "id": "e052f234-700f-4dd2-a6d5-a3211432b3bc",
    "name": "Krokom",
    "municipality": "Krokom",
    "coordinates": [63.3262424, 14.4486544],
    "contact": null,
    "studentCount": 17,
    "parentCount": 8
  },
  {
    "id": "632de1c4-667a-4866-842c-08f976096073",
    "name": "Båstad",
    "municipality": "Båstad",
    "coordinates": [56.4333027, 12.8353785],
    "contact": null,
    "studentCount": 2,
    "parentCount": 1
  },
  {
    "id": "fd20a72b-4348-46bc-bdf3-01f9ccc7e168",
    "name": "Flen",
    "municipality": "Flen",
    "coordinates": [59.0579376, 16.5879122],
    "contact": null,
    "studentCount": 4,
    "parentCount": 3
  },
  {
    "id": "8814dbb2-e899-4148-bd4f-ba6ca0d639bf",
    "name": "Gnosjö",
    "municipality": "Gnosjö",
    "coordinates": [57.35803979999999, 13.7371898],
    "contact": null,
    "studentCount": 1,
    "parentCount": 1
  },
  {
    "id": "26e530b5-6ca1-4ab3-ae99-1e05136f4bb8",
    "name": "Håbo",
    "municipality": "Håbo",
    "coordinates": [57.9093623, 14.0745539],
    "contact": null,
    "studentCount": 13,
    "parentCount": 10
  },
  {
    "id": "1424d06b-3da7-4422-97d9-e737af03204c",
    "name": "Lycksele",
    "municipality": "Lycksele",
    "coordinates": [64.5958098, 18.676367],
    "contact": null,
    "studentCount": 5,
    "parentCount": 4
  },
  {
    "id": "68acb5a1-8310-44f2-a974-607523abbc1a",
    "name": "Höganäs",
    "municipality": "Höganäs",
    "coordinates": [56.2006388, 12.5553288],
    "contact": null,
    "studentCount": 104,
    "parentCount": 72
  },
  {
    "id": "af08233c-1a38-408c-939b-a0a1daece62c",
    "name": "Ekerö",
    "municipality": "Ekerö",
    "coordinates": [59.2798338, 17.7902246],
    "contact": null,
    "studentCount": 21,
    "parentCount": 11
  },
  {
    "id": "4a3b0c30-761a-492f-9599-f8fee78c809d",
    "name": "Trosa",
    "municipality": "Trosa",
    "coordinates": [58.902655, 17.5494638],
    "contact": null,
    "studentCount": 10,
    "parentCount": 7
  },
  {
    "id": "7eb35fe4-4a94-4da7-bc98-96f5fc8ad171",
    "name": "Kalmar",
    "municipality": "Kalmar",
    "coordinates": [56.6634447, 16.356779],
    "contact": null,
    "studentCount": 14,
    "parentCount": 10
  },
  {
    "id": "c053806b-cc05-41e2-8334-6d3262d211ba",
    "name": "Svenljunga",
    "municipality": "Svenljunga",
    "coordinates": [57.4955715, 13.1146225],
    "contact": null,
    "studentCount": 7,
    "parentCount": 3
  },
  {
    "id": "37681d24-087d-48a6-b5b5-a2c6f595a65a",
    "name": "Tranemo",
    "municipality": "Tranemo",
    "coordinates": [57.4855688, 13.35241],
    "contact": null,
    "studentCount": 6,
    "parentCount": 4
  },
  {
    "id": "48c53dbe-e662-4899-a758-ab341f6d572a",
    "name": "Avesta",
    "municipality": "Avesta",
    "coordinates": [60.14532999999999, 16.1738399],
    "contact": null,
    "studentCount": 1,
    "parentCount": 1
  },
  {
    "id": "ecf836f8-ca2c-4746-8770-29f6fef8ef73",
    "name": "Bollnäs",
    "municipality": "Bollnäs",
    "coordinates": [61.34837950000001, 16.3942685],
    "contact": null,
    "studentCount": 2,
    "parentCount": 1
  },
  {
    "id": "126915c0-7fe4-4821-ab07-6aa0e8ac58ac",
    "name": "Lindesberg",
    "municipality": "Lindesberg",
    "coordinates": [59.5976983, 15.2229108],
    "contact": null,
    "studentCount": 6,
    "parentCount": 4
  },
  {
    "id": "79eb56bc-572a-4d22-9ac0-c02c8f79fdaf",
    "name": "Eksjö",
    "municipality": "Eksjö",
    "coordinates": [57.6172, 15.22155],
    "contact": null,
    "studentCount": 3,
    "parentCount": 3
  },
  {
    "id": "a8b3989c-5029-493c-a46b-7ec6a68bc10a",
    "name": "Sundsvall",
    "municipality": "Sundsvall",
    "coordinates": [62.390811, 17.306927],
    "contact": null,
    "studentCount": 11,
    "parentCount": 8
  },
  {
    "id": "ec251131-e206-4d1e-a764-dfd5212de63a",
    "name": "Laholm",
    "municipality": "Laholm",
    "coordinates": [56.50575569999999, 13.0456048],
    "contact": null,
    "studentCount": 5,
    "parentCount": 3
  },
  {
    "id": "52ba7275-4c28-47ff-b686-96791fc039a4",
    "name": "Örkelljunga",
    "municipality": "Örkelljunga",
    "coordinates": [56.283635, 13.278832],
    "contact": null,
    "studentCount": 1,
    "parentCount": 1
  },
  {
    "id": "475e27c6-a1f7-455a-98ea-b2be228da244",
    "name": "Mjölby",
    "municipality": "Mjölby",
    "coordinates": [58.3226908, 15.1335348],
    "contact": null,
    "studentCount": 6,
    "parentCount": 3
  },
  {
    "id": "d09e5aa2-fd7e-45aa-bcab-d4ec038846e1",
    "name": "Lidköping",
    "municipality": "Lidköping",
    "coordinates": [58.5035047, 13.1570768],
    "contact": null,
    "studentCount": 23,
    "parentCount": 15
  },
  {
    "id": "04feaad0-0beb-4522-8494-106219f24973",
    "name": "Härnösand",
    "municipality": "Härnösand",
    "coordinates": [62.6322698, 17.9408714],
    "contact": null,
    "studentCount": 1,
    "parentCount": 1
  },
  {
    "id": "53b9ddcb-1678-4acf-9b8f-8021503331ed",
    "name": "Finspång",
    "municipality": "Finspång",
    "coordinates": [58.7074884, 15.773595],
    "contact": null,
    "studentCount": 5,
    "parentCount": 3
  },
  {
    "id": "14769900-ca8a-4af6-bd37-ed6499b47125",
    "name": "Timrå",
    "municipality": "Timrå",
    "coordinates": [62.4854563, 17.3248651],
    "contact": null,
    "studentCount": 5,
    "parentCount": 3
  },
  {
    "id": "16c6360f-05fa-4f6a-8e09-901bf307228b",
    "name": "Karlstads",
    "municipality": "Karlstads",
    "coordinates": [59.3783091, 13.4967921],
    "contact": null,
    "studentCount": 7,
    "parentCount": 4
  },
  {
    "id": "226a8b86-0276-4986-9d39-fcaa0103bd56",
    "name": "Västerviks",
    "municipality": "Västerviks",
    "coordinates": [57.75771559999999, 16.6369759],
    "contact": null,
    "studentCount": 4,
    "parentCount": 2
  },
  {
    "id": "d5039ccc-8ed5-4a5b-ad06-ed39a5b7c03f",
    "name": "Landskrona stad",
    "municipality": "Landskrona stad",
    "coordinates": [55.8703477, 12.8300802],
    "contact": null,
    "studentCount": 12,
    "parentCount": 9
  },
  {
    "id": "6a130cc8-4848-4e72-b379-29649a9518bf",
    "name": "Tomelilla",
    "municipality": "Tomelilla",
    "coordinates": [55.54188869999999, 13.9538845],
    "contact": null,
    "studentCount": 3,
    "parentCount": 2
  },
  {
    "id": "5f82cb1c-48ad-4488-a8ec-baffad61b527",
    "name": "Vimmerby",
    "municipality": "Vimmerby",
    "coordinates": [57.6690339, 15.858857],
    "contact": null,
    "studentCount": 6,
    "parentCount": 4
  },
  {
    "id": "0a9556ea-1638-47ab-b086-c125b33bf71d",
    "name": "Ale",
    "municipality": "Ale",
    "coordinates": [57.988605, 12.2344546],
    "contact": null,
    "studentCount": 14,
    "parentCount": 10
  },
  {
    "id": "8bfbdf05-1cc4-4f87-a967-0b59da93b825",
    "name": "Svedala",
    "municipality": "Svedala",
    "coordinates": [55.5089084, 13.2371097],
    "contact": null,
    "studentCount": 7,
    "parentCount": 4
  },
  {
    "id": "31be4232-2f94-4f6c-bd6a-b10d72b93620",
    "name": "Karlskoga",
    "municipality": "Karlskoga",
    "coordinates": [59.32863399999999, 14.536414],
    "contact": null,
    "studentCount": 3,
    "parentCount": 3
  },
  {
    "id": "f21ee3e1-abe0-4b8a-87d2-3f931e4d3aea",
    "name": "Skurups",
    "municipality": "Skurups",
    "coordinates": [55.48045, 13.502349],
    "contact": null,
    "studentCount": 2,
    "parentCount": 1
  },
  {
    "id": "a4356927-5cbc-4b4c-ba68-7c149d99e405",
    "name": "Uddevalla",
    "municipality": "Uddevalla",
    "coordinates": [58.3498003, 11.935649],
    "contact": null,
    "studentCount": 10,
    "parentCount": 8
  },
  {
    "id": "e7c0d9f0-095c-4903-92ae-3c1cace1b732",
    "name": "Vaggeryd",
    "municipality": "Vaggeryd",
    "coordinates": [57.4989621, 14.1486297],
    "contact": null,
    "studentCount": 3,
    "parentCount": 2
  },
  {
    "id": "b6ec46a5-ffc8-4c64-9df9-24d750836f34",
    "name": "Hjo",
    "municipality": "Hjo",
    "coordinates": [58.3070702, 14.2874663],
    "contact": null,
    "studentCount": 4,
    "parentCount": 3
  },
  {
    "id": "0ffd1fc3-e303-4ade-bb77-bf7982391015",
    "name": "Mariestad",
    "municipality": "Mariestad",
    "coordinates": [58.7101119, 13.8213327],
    "contact": null,
    "studentCount": 4,
    "parentCount": 4
  },
  {
    "id": "10d702e6-de92-4f38-983d-04731bb5767c",
    "name": "Herrljunga",
    "municipality": "Herrljunga",
    "coordinates": [58.0780287, 13.0188387],
    "contact": null,
    "studentCount": 19,
    "parentCount": 16
  },
  {
    "id": "3f6f623b-3269-4c89-9670-04cdaa3b78a1",
    "name": "Stenungsund",
    "municipality": "Stenungsund",
    "coordinates": [58.0678388, 11.8294346],
    "contact": null,
    "studentCount": 6,
    "parentCount": 4
  },
  {
    "id": "b9c00771-1319-4523-abc4-90a4bd3589f5",
    "name": "Hultsfred",
    "municipality": "Hultsfred",
    "coordinates": [57.49484, 15.8416513],
    "contact": null,
    "studentCount": 2,
    "parentCount": 2
  },
  {
    "id": "6ed9c4b9-b232-4b0f-8acb-bd2affd4abd6",
    "name": "Bollebygd",
    "municipality": "Bollebygd",
    "coordinates": [57.66896910000001, 12.5701434],
    "contact": null,
    "studentCount": 2,
    "parentCount": 1
  },
  {
    "id": "6b7b33b7-c0df-4448-9461-485811fa61b2",
    "name": "Hedemora",
    "municipality": "Hedemora",
    "coordinates": [60.2775453, 15.985892],
    "contact": null,
    "studentCount": 13,
    "parentCount": 7
  },
  {
    "id": "d601d3bc-08e5-4878-ba45-0dac29bc607d",
    "name": "Hammarö",
    "municipality": "Hammarö",
    "coordinates": [59.33333, 13.51667],
    "contact": null,
    "studentCount": 5,
    "parentCount": 3
  },
  {
    "id": "cf7cbc46-01cf-4107-92b3-7d491cfdfbb5",
    "name": "Partille",
    "municipality": "Partille",
    "coordinates": [57.7366497, 12.1251968],
    "contact": null,
    "studentCount": 16,
    "parentCount": 12
  },
  {
    "id": "e8dce0d5-7ffb-4c8d-b10b-dbb5cd391ad1",
    "name": "Svalöv",
    "municipality": "Svalöv",
    "coordinates": [55.95632999999999, 13.13318],
    "contact": null,
    "studentCount": 2,
    "parentCount": 1
  },
  {
    "id": "0d708482-252b-4f4b-93d4-b9812d01d80b",
    "name": "Smedjebacken",
    "municipality": "Smedjebacken",
    "coordinates": [60.1431933, 15.4159915],
    "contact": null,
    "studentCount": 5,
    "parentCount": 5
  },
  {
    "id": "12d63933-8778-411b-bab4-8c1a4a5e68eb",
    "name": "Vaxholm",
    "municipality": "Vaxholm",
    "coordinates": [59.40329679999999, 18.3263804],
    "contact": null,
    "studentCount": 9,
    "parentCount": 7
  },
  {
    "id": "1d2e2c07-31e0-450e-8c8f-0ced5307b0f5",
    "name": "Klippan",
    "municipality": "Klippan",
    "coordinates": [56.1348998, 13.1290409],
    "contact": null,
    "studentCount": 1,
    "parentCount": 1
  },
  {
    "id": "731118c1-74f1-47ae-bf77-3ae34d9f9854",
    "name": "Sala",
    "municipality": "Sala",
    "coordinates": [59.9208594, 16.606328],
    "contact": null,
    "studentCount": 2,
    "parentCount": 2
  },
  {
    "id": "711e276c-90bc-4fa4-84f4-74dd322cb60f",
    "name": "Vännäs",
    "municipality": "Vännäs",
    "coordinates": [63.908007, 19.752965],
    "contact": null,
    "studentCount": 1,
    "parentCount": 1
  },
  {
    "id": "002b775c-1998-4e73-a99d-f8e03e326ca8",
    "name": "Katrineholm",
    "municipality": "Katrineholm",
    "coordinates": [58.99555109999999, 16.2054756],
    "contact": null,
    "studentCount": 3,
    "parentCount": 2
  },
  {
    "id": "0f768d9b-c712-4a3e-a76f-482179cd2a5f",
    "name": "Gislaved",
    "municipality": "Gislaved",
    "coordinates": [57.2985, 13.54326],
    "contact": null,
    "studentCount": 1,
    "parentCount": 1
  },
  {
    "id": "562afa52-dcdc-4cbc-a4e5-d24c4694f86d",
    "name": "Lysekil",
    "municipality": "Lysekil",
    "coordinates": [58.27557299999999, 11.435558],
    "contact": null,
    "studentCount": 17,
    "parentCount": 9
  },
  {
    "id": "c8ea160b-050b-4c69-87db-8c32621a1b64",
    "name": "Sollefteå",
    "municipality": "Sollefteå",
    "coordinates": [63.1654065, 17.277135],
    "contact": null,
    "studentCount": 5,
    "parentCount": 4
  },
  {
    "id": "0b671607-83a1-4874-aa4d-ae312aa15a76",
    "name": "Nynäshamn",
    "municipality": "Nynäshamn",
    "coordinates": [58.90292600000001, 17.9465289],
    "contact": null,
    "studentCount": 15,
    "parentCount": 8
  },
  {
    "id": "0ce261d4-924f-48ec-a981-67b6fffc2160",
    "name": "Kiruna",
    "municipality": "Kiruna",
    "coordinates": [67.8557995, 20.2252821],
    "contact": null,
    "studentCount": 26,
    "parentCount": 11
  },
  {
    "id": "022f1dee-f95d-4eb3-ac4c-4855bb8b68e7",
    "name": "Tierp",
    "municipality": "Tierp",
    "coordinates": [60.34758659999999, 17.5205086],
    "contact": null,
    "studentCount": 1,
    "parentCount": 1
  },
  {
    "id": "2069fa16-05f0-429c-b6da-6067391c631c",
    "name": "Tidaholm",
    "municipality": "Tidaholm",
    "coordinates": [58.1817692, 13.9594737],
    "contact": null,
    "studentCount": 2,
    "parentCount": 2
  },
  {
    "id": "4f91e436-a2a9-4e30-80b7-069d66db927f",
    "name": "Gagnef",
    "municipality": "Gagnef",
    "coordinates": [60.59098299999999, 15.0700491],
    "contact": null,
    "studentCount": 1,
    "parentCount": 1
  },
  {
    "id": "c5bfe1e9-2260-4384-a8b6-2fde06421e66",
    "name": "Karlskrona",
    "municipality": "Karlskrona",
    "coordinates": [56.161224, 15.5869],
    "contact": null,
    "studentCount": 3,
    "parentCount": 2
  },
  {
    "id": "b566d384-0adb-4eab-a943-735baba29b73",
    "name": "Gnesta",
    "municipality": "Gnesta",
    "coordinates": [59.04834830000001, 17.3072276],
    "contact": null,
    "studentCount": 32,
    "parentCount": 23
  },
  {
    "id": "dbe8f1e6-5b49-437d-9415-44026bb604b9",
    "name": "Köping",
    "municipality": "Köping",
    "coordinates": [59.5120962, 15.9945102],
    "contact": null,
    "studentCount": 1,
    "parentCount": 1
  },
  {
    "id": "b7ebd35c-3bb5-4277-a457-af4d457db555",
    "name": "Lekeberg",
    "municipality": "Lekeberg",
    "coordinates": [59.173, 14.813],
    "contact": null,
    "studentCount": 1,
    "parentCount": 1
  },
  {
    "id": "11e173d2-7654-470c-9ae9-51d62b047509",
    "name": "Karlsborg",
    "municipality": "Karlsborg",
    "coordinates": [58.5300853, 14.5105655],
    "contact": null,
    "studentCount": 2,
    "parentCount": 2
  },
  {
    "id": "d7b8a64c-66fe-43b1-9fd0-60af25655e80",
    "name": "Vadstena",
    "municipality": "Vadstena",
    "coordinates": [58.44760219999999, 14.8902335],
    "contact": null,
    "studentCount": 2,
    "parentCount": 1
  },
  {
    "id": "6887fe07-4358-482b-970e-8cdb3461ed01",
    "name": "Ljusnarsberg",
    "municipality": "Ljusnarsberg",
    "coordinates": [59.8774473, 14.9988486],
    "contact": null,
    "studentCount": 4,
    "parentCount": 2
  },
  {
    "id": "b4fd1ebe-2b49-4669-9b72-0581a7e119ab",
    "name": "Falköping",
    "municipality": "Falköping",
    "coordinates": [58.17502899999999, 13.553217],
    "contact": null,
    "studentCount": 29,
    "parentCount": 21
  },
  {
    "id": "d81b084a-dfdf-403d-b135-d7ec39cc3487",
    "name": "Nybro",
    "municipality": "Nybro",
    "coordinates": [56.7437998, 15.9086806],
    "contact": null,
    "studentCount": 2,
    "parentCount": 2
  },
  {
    "id": "f715d010-ee85-4266-8d9b-09a58b0e2b8d",
    "name": "Falkenberg",
    "municipality": "Falkenberg",
    "coordinates": [56.90273329999999, 12.4888013],
    "contact": null,
    "studentCount": 6,
    "parentCount": 5
  },
  {
    "id": "997195ac-1890-4385-87e2-b2249577d487",
    "name": "Åtvidaberg",
    "municipality": "Åtvidaberg",
    "coordinates": [58.2007895, 15.9976986],
    "contact": null,
    "studentCount": 1,
    "parentCount": 1
  },
  {
    "id": "ede86290-e6f8-436c-989e-8cdf376f230e",
    "name": "Oxelösund",
    "municipality": "Oxelösund",
    "coordinates": [58.6754851, 17.0749546],
    "contact": null,
    "studentCount": 1,
    "parentCount": 1
  },
  {
    "id": "b5fcd975-e97a-495e-bcc1-14ef6980e151",
    "name": "Mellerud",
    "municipality": "Mellerud",
    "coordinates": [58.7025681, 12.4518424],
    "contact": null,
    "studentCount": 4,
    "parentCount": 3
  },
  {
    "id": "f3cbcdd4-9b5f-4fc1-a6e0-7a3c1d2bc9cd",
    "name": "Surahammars",
    "municipality": "Surahammars",
    "coordinates": [59.70722619999999, 16.2268409],
    "contact": null,
    "studentCount": 1,
    "parentCount": 1
  },
  {
    "id": "528ff190-5c64-462d-a28d-3fee2bb6626c",
    "name": "Säter",
    "municipality": "Säter",
    "coordinates": [60.34665, 15.7479],
    "contact": null,
    "studentCount": 3,
    "parentCount": 2
  },
  {
    "id": "a3ab58e1-a554-4d8a-9e5b-589131799e9b",
    "name": "Härjedalen",
    "municipality": "Härjedalen",
    "coordinates": [62.20095, 13.2447],
    "contact": null,
    "studentCount": 7,
    "parentCount": 4
  },
  {
    "id": "e32310b6-9fe4-4c26-9649-0123c8c73044",
    "name": "Götene",
    "municipality": "Götene",
    "coordinates": [58.528002, 13.491428],
    "contact": null,
    "studentCount": 5,
    "parentCount": 3
  },
  {
    "id": "b3811bf8-cf9c-4cfe-9676-17b90fbd8c73",
    "name": "Markaryd",
    "municipality": "Markaryd",
    "coordinates": [56.4617744, 13.5962744],
    "contact": null,
    "studentCount": 1,
    "parentCount": 1
  },
  {
    "id": "7cd48154-3792-4352-a3b2-9e82af5e68f6",
    "name": "Borlänge",
    "municipality": "Borlänge",
    "coordinates": [60.484304, 15.433969],
    "contact": null,
    "studentCount": 6,
    "parentCount": 6
  },
  {
    "id": "5c770445-bc59-4a43-b9e9-fe034bcd2c86",
    "name": "Kramfors",
    "municipality": "Kramfors",
    "coordinates": [62.9284332, 17.7862947],
    "contact": null,
    "studentCount": 1,
    "parentCount": 1
  },
  {
    "id": "aec1c461-32fe-4bf5-aea1-bca6a43d677d",
    "name": "Perstorps",
    "municipality": "Perstorps",
    "coordinates": [56.137972, 13.3949862],
    "contact": null,
    "studentCount": 1,
    "parentCount": 1
  },
  {
    "id": "f349cf78-8615-4f27-a07b-a49f5ffe794d",
    "name": "Hallstahammar",
    "municipality": "Hallstahammar",
    "coordinates": [59.6132041, 16.2294755],
    "contact": null,
    "studentCount": 3,
    "parentCount": 3
  },
  {
    "id": "5399d6c7-2c76-4765-bd33-8b2b980a440e",
    "name": "Jokkmokk",
    "municipality": "Jokkmokk",
    "coordinates": [66.60696089999999, 19.8229206],
    "contact": null,
    "studentCount": 8,
    "parentCount": 4
  },
  {
    "id": "09faf09f-4828-4a21-ad92-e0453714deb8",
    "name": "Vetlanda",
    "municipality": "Vetlanda",
    "coordinates": [57.42746, 15.08533],
    "contact": null,
    "studentCount": 5,
    "parentCount": 2
  },
  {
    "id": "5c24419a-e69b-4831-b937-8cfbf3fa9b4d",
    "name": "Åstorp",
    "municipality": "Åstorp",
    "coordinates": [56.134262, 12.945908],
    "contact": null,
    "studentCount": 2,
    "parentCount": 1
  },
  {
    "id": "9219960f-70a5-4091-b415-e5ab8bf88328",
    "name": "Uppvidinge",
    "municipality": "Uppvidinge",
    "coordinates": [57.04025000000001, 15.4331],
    "contact": null,
    "studentCount": 1,
    "parentCount": 1
  },
  {
    "id": "bbc705bb-75cc-46a7-a3b8-a9c1531accbc",
    "name": "Solna",
    "municipality": "Solna",
    "coordinates": [59.36887909999999, 18.0084334],
    "contact": null,
    "studentCount": 10,
    "parentCount": 7
  },
  {
    "id": "0ffbadfa-bb12-48cc-8ecd-71e4c075d3e3",
    "name": "Nykvarn",
    "municipality": "Nykvarn",
    "coordinates": [59.178177, 17.427816],
    "contact": null,
    "studentCount": 3,
    "parentCount": 2
  },
  {
    "id": "708da1c3-0ec8-443e-b9dc-53df96905892",
    "name": "Gotland",
    "municipality": "Gotland",
    "coordinates": [57.46841209999999, 18.4867447],
    "contact": null,
    "studentCount": 9,
    "parentCount": 7
  },
  {
    "id": "49261820-909d-41a4-a34d-84f6704819f6",
    "name": "Karlstad",
    "municipality": "Karlstad",
    "coordinates": [59.3783091, 13.4967921],
    "contact": null,
    "studentCount": 19,
    "parentCount": 16
  },
  {
    "id": "65540933-f2dd-4454-a898-28c74d0e41f1",
    "name": "Hörby",
    "municipality": "Hörby",
    "coordinates": [55.8508109, 13.6599486],
    "contact": null,
    "studentCount": 3,
    "parentCount": 2
  },
  {
    "id": "90c64f65-85d3-4ade-8fa5-003faa8ec4fa",
    "name": "Malmö Stad",
    "municipality": "Malmö Stad",
    "coordinates": [55.5859461, 12.9467319],
    "contact": null,
    "studentCount": 22,
    "parentCount": 17
  },
  {
    "id": "7bbf515e-a3b0-4343-b063-e5cf56e0874c",
    "name": "Askersund",
    "municipality": "Askersund",
    "coordinates": [58.88942679999999, 14.9109867],
    "contact": null,
    "studentCount": 2,
    "parentCount": 1
  },
  {
    "id": "9167f0a2-149d-46c7-a134-8041e249e94c",
    "name": "Vara",
    "municipality": "Vara",
    "coordinates": [58.261781, 12.960194],
    "contact": null,
    "studentCount": 2,
    "parentCount": 1
  },
  {
    "id": "a1ed227b-d07b-40e1-be19-ecd4882f3228",
    "name": "Kalix",
    "municipality": "Kalix",
    "coordinates": [65.8552807, 23.143965],
    "contact": null,
    "studentCount": 1,
    "parentCount": 1
  },
  {
    "id": "56a0ecb1-374e-4db1-970e-b00ba71ebf70",
    "name": "Söderköping",
    "municipality": "Söderköping",
    "coordinates": [58.4759013, 16.3234307],
    "contact": null,
    "studentCount": 3,
    "parentCount": 2
  },
  {
    "id": "4f9bf8ad-630c-410c-a9ed-731abd78f40e",
    "name": "Karlshamn",
    "municipality": "Karlshamn",
    "coordinates": [56.170303, 14.863073],
    "contact": null,
    "studentCount": 1,
    "parentCount": 1
  },
  {
    "id": "47300949-280a-4ea1-b5ac-86bcfd506d61",
    "name": "Värnamo",
    "municipality": "Värnamo",
    "coordinates": [57.1831605, 14.0478214],
    "contact": null,
    "studentCount": 7,
    "parentCount": 5
  },
  {
    "id": "2587ffeb-b9b6-4702-8245-fe57e8f0c6d1",
    "name": "Lilla Edet",
    "municipality": "Lilla Edet",
    "coordinates": [58.132158, 12.1241336],
    "contact": null,
    "studentCount": 1,
    "parentCount": 1
  },
  {
    "id": "501c7b19-f78d-424b-87a6-7533424765db",
    "name": "Strömsund",
    "municipality": "Strömsund",
    "coordinates": [63.85366209999999, 15.5568691],
    "contact": null,
    "studentCount": 3,
    "parentCount": 2
  },
  {
    "id": "5daf23b4-c6da-40fb-b791-e71bfc527eed",
    "name": "Söderhamn",
    "municipality": "Söderhamn",
    "coordinates": [61.3055762, 17.0628102],
    "contact": null,
    "studentCount": 4,
    "parentCount": 2
  },
  {
    "id": "756dc40c-955c-403b-9aee-ce5704317106",
    "name": "Orust",
    "municipality": "Orust",
    "coordinates": [58.17830999999999, 11.65224],
    "contact": null,
    "studentCount": 2,
    "parentCount": 1
  },
  {
    "id": "b5c35ddd-f843-48a3-976d-93c31086a860",
    "name": "Mullsjö",
    "municipality": "Mullsjö",
    "coordinates": [57.9165989, 13.8773174],
    "contact": null,
    "studentCount": 4,
    "parentCount": 4
  },
  {
    "id": "a7fb8e16-93e3-4a8c-ae1e-a9d9e63317c7",
    "name": "Boden",
    "municipality": "Boden",
    "coordinates": [65.8251188, 21.6887028],
    "contact": null,
    "studentCount": 4,
    "parentCount": 4
  },
  {
    "id": "180783fa-b1b7-4c63-8d45-d2754e87da43",
    "name": "Skara",
    "municipality": "Skara",
    "coordinates": [58.3860128, 13.4393282],
    "contact": null,
    "studentCount": 1,
    "parentCount": 1
  },
  {
    "id": "4aceadb2-0367-4d3a-a9e9-821106f1ae96",
    "name": "Ljungby",
    "municipality": "Ljungby",
    "coordinates": [56.8338774, 13.9410417],
    "contact": null,
    "studentCount": 1,
    "parentCount": 1
  },
  {
    "id": "2e494d57-ab03-4dff-ade9-447a2ccab120",
    "name": "Heby",
    "municipality": "Heby",
    "coordinates": [59.93562610000001, 16.8690109],
    "contact": null,
    "studentCount": 4,
    "parentCount": 2
  },
  {
    "id": "0c46c297-e357-47d2-b2a1-222b3785c9d6",
    "name": "Öckerö",
    "municipality": "Öckerö",
    "coordinates": [57.711741, 11.6487886],
    "contact": null,
    "studentCount": 3,
    "parentCount": 3
  },
  {
    "id": "877433bc-1abd-4396-869b-9362059f46a0",
    "name": "Grums",
    "municipality": "Grums",
    "coordinates": [59.35317870000001, 13.1117319],
    "contact": null,
    "studentCount": 2,
    "parentCount": 1
  },
  {
    "id": "40b0b19f-bd53-4ded-8cb6-7399576f38d8",
    "name": "Berg",
    "municipality": "Berg",
    "coordinates": [62.7724812, 14.1698666],
    "contact": null,
    "studentCount": 1,
    "parentCount": 1
  },
  {
    "id": "f5f20af8-f11a-40aa-9929-48efd916f367",
    "name": "Östra Göinge",
    "municipality": "Östra Göinge",
    "coordinates": [56.26821, 14.15309],
    "contact": null,
    "studentCount": 1,
    "parentCount": 1
  },
  {
    "id": "3ec7d6ea-f4bb-49fd-a082-acf14a0aa670",
    "name": "Kristinehamn",
    "municipality": "Kristinehamn",
    "coordinates": [59.3100677, 14.1089192],
    "contact": null,
    "studentCount": 1,
    "parentCount": 1
  },
  {
    "id": "d8d1aaf8-092b-4470-b269-ced4bca70689",
    "name": "Olofström",
    "municipality": "Olofström",
    "coordinates": [56.277708, 14.530938],
    "contact": null,
    "studentCount": 2,
    "parentCount": 1
  },
  {
    "id": "b3ef6546-2d55-4e2a-a0cf-d4071e78056e",
    "name": "Nora",
    "municipality": "Nora",
    "coordinates": [59.51920639999999, 15.0378667],
    "contact": null,
    "studentCount": 2,
    "parentCount": 1
  },
  {
    "id": "0670882c-07ae-4da9-9e44-a94cdf3b40a4",
    "name": "Färgelanda",
    "municipality": "Färgelanda",
    "coordinates": [58.567559, 11.994926],
    "contact": null,
    "studentCount": 3,
    "parentCount": 1
  },
  {
    "id": "6e8528e6-0ec4-4a4d-8977-2fa7314e3193",
    "name": "Norberg",
    "municipality": "Norberg",
    "coordinates": [60.06504200000001, 15.923796],
    "contact": null,
    "studentCount": 1,
    "parentCount": 1
  }
]
